{
	"id": 0,
	"region": "New_South_Wales",
	"ava": [{
		"id": 0,
		"ava_id": "riverina",
		"name": "Riverina",
		"state": "New South Wales",
		"created": "1998-11-12",
		"latSpan": 2.6838,
		"lonSpan": 3.5421,
		"latitude": -34.3291935,
		"longitude": 145.81346000000002
	}, {
		"id": 1,
		"ava_id": "gundagai",
		"name": "Gundagai",
		"state": "New South Wales",
		"created": "2002-03-25",
		"latSpan": 1.0493,
		"lonSpan": 1.3604,
		"latitude": -34.9720495,
		"longitude": 147.8847885
	}, {
		"id": 2,
		"ava_id": "canberra_district",
		"name": "Canberra District",
		"state": "New South Wales",
		"created": "1998-02-09",
		"latSpan": 1.1755,
		"lonSpan": 1.0128,
		"latitude": -34.996679,
		"longitude": 149.028659
	}, {
		"id": 3,
		"ava_id": "hunter",
		"name": "Hunter",
		"state": "New South Wales",
		"created": "1997-03-18",
		"latSpan": 1.536,
		"lonSpan": 2.1577,
		"latitude": -32.370973,
		"longitude": 150.7536425
	}, {
		"id": 4,
		"ava_id": "cowra",
		"name": "Cowra",
		"state": "New South Wales",
		"created": "1998-10-16",
		"latSpan": 0.6315,
		"lonSpan": 0.3982,
		"latitude": -33.742906000000005,
		"longitude": 148.6503405
	}, {
		"id": 5,
		"ava_id": "northern_slopes",
		"name": "Northern Slopes",
		"state": "New South Wales",
		"created": "1996-05-01",
		"latSpan": 4.0553,
		"lonSpan": 4.0056,
		"latitude": -30.276864500000002,
		"longitude": 150.62845
	}, {
		"id": 6,
		"ava_id": "tumbarumba",
		"name": "Tumbarumba",
		"state": "New South Wales",
		"created": "1998-12-10",
		"latSpan": 0.891,
		"lonSpan": 0.6706,
		"latitude": -35.900081,
		"longitude": 147.92810100000003
	}, {
		"id": 7,
		"ava_id": "hastings_river",
		"name": "Hastings River",
		"state": "New South Wales",
		"created": "1999-03-25",
		"latSpan": 0.4984,
		"lonSpan": 0.4913,
		"latitude": -31.484686,
		"longitude": 152.728298
	}, {
		"id": 8,
		"ava_id": "southern_new_south_wales",
		"name": "New South Wales",
		"state": "Southern New South Wales",
		"created": "1996-05-01",
		"latSpan": 3.3745,
		"lonSpan": 2.6477,
		"latitude": -35.5755415,
		"longitude": 149.009703
	}, {
		"id": 9,
		"ava_id": "western_plains",
		"name": "Western Plains",
		"state": "New South Wales",
		"created": "1996-05-01",
		"latSpan": 4.873,
		"lonSpan": 9.3612,
		"latitude": -30.973641999999998,
		"longitude": 145.6798635
	}, {
		"id": 10,
		"ava_id": "hunter_valley",
		"name": "Hunter Valley",
		"state": "New South Wales",
		"created": "1996-05-01",
		"latSpan": 1.5443,
		"lonSpan": 2.2455,
		"latitude": -32.3668815,
		"longitude": 150.7959705
	}, {
		"id": 11,
		"ava_id": "new_south_wales",
		"name": "New South Wales",
		"state": "New South Wales",
		"created": "1994-01-26",
		"latSpan": 4.873,
		"lonSpan": 9.3612,
		"latitude": -30.973641999999998,
		"longitude": 145.6798635
	}, {
		"id": 12,
		"ava_id": "perricoota",
		"name": "Perricoota",
		"state": "New South Wales",
		"created": "1999-03-25",
		"latSpan": 0.2453,
		"lonSpan": 0.4433,
		"latitude": -36.007257499999994,
		"longitude": 144.7654405
	}, {
		"id": 13,
		"ava_id": "hilltops",
		"name": "Hilltops",
		"state": "New South Wales",
		"created": "1998-02-09",
		"latSpan": 0.7665,
		"lonSpan": 0.694,
		"latitude": -34.4400975,
		"longitude": 148.397168
	}, {
		"id": 14,
		"ava_id": "murray_darling",
		"name": "Murray Darling",
		"state": "New South Wales",
		"created": "1997-06-16",
		"latSpan": 1.6235,
		"lonSpan": 3.0022,
		"latitude": -34.184918,
		"longitude": 142.5024085
	}, {
		"id": 15,
		"ava_id": "big_rivers",
		"name": "Big Rivers",
		"state": "New South Wales",
		"created": "1995-05-01",
		"latSpan": 4.5975,
		"lonSpan": 7.2738,
		"latitude": -33.831177499999995,
		"longitude": 144.638337
	}, {
		"id": 16,
		"ava_id": "swan_hill",
		"name": "Swan Hill",
		"state": "New South Wales",
		"created": "1996-06-11",
		"latSpan": 0.8096,
		"lonSpan": 0.7251,
		"latitude": -35.2629655,
		"longitude": 143.5108565
	}, {
		"id": 17,
		"ava_id": "south_coast",
		"name": "South Coast",
		"state": "New South Wales",
		"created": "1996-05-01",
		"latSpan": 4.8078,
		"lonSpan": 2.3815,
		"latitude": -35.101386500000004,
		"longitude": 150.546988
	}, {
		"id": 18,
		"ava_id": "new_england_australia",
		"name": "New England Australia",
		"state": "New South Wales",
		"created": "2008-01-23",
		"latSpan": 2.5268,
		"lonSpan": 1.4763,
		"latitude": -30.130285,
		"longitude": 151.51183650000002
	}, {
		"id": 19,
		"ava_id": "shoalhaven_coast",
		"name": "Shoalhaven Coast",
		"state": "New South Wales",
		"created": "2002-08-06",
		"latSpan": 1.0524,
		"lonSpan": 0.5818,
		"latitude": -35.159995499999994,
		"longitude": 150.574511
	}, {
		"id": 20,
		"ava_id": "orange",
		"name": "Orange",
		"state": "New South Wales",
		"created": "1997-10-31",
		"latSpan": 0.8476,
		"lonSpan": 0.6288,
		"latitude": -33.388552000000004,
		"longitude": 149.1076455
	}, {
		"id": 21,
		"ava_id": "broke_fordwich",
		"name": "Broke Fordwich",
		"state": "New South Wales",
		"created": "1997-09-02",
		"latSpan": 0.3878,
		"lonSpan": 0.3479,
		"latitude": -32.760021300000005,
		"longitude": 151.03866965
	}, {
		"id": 22,
		"ava_id": "northern_rivers",
		"name": "Northern Rivers",
		"state": "New South Wales",
		"created": "1996-05-01",
		"latSpan": 4.6789,
		"lonSpan": 2.4034,
		"latitude": -30.496438,
		"longitude": 152.436926
	}, {
		"id": 23,
		"ava_id": "pokolbin",
		"name": "Pokolbin",
		"state": "New South Wales",
		"created": "2010-07-29",
		"latSpan": 0.1951,
		"lonSpan": 0.1256,
		"latitude": -32.7657735,
		"longitude": 151.2956765
	}, {
		"id": 24,
		"ava_id": "central_ranges",
		"name": "Central Ranges",
		"state": "New South Wales",
		"created": "1996-05-01",
		"latSpan": 2.1326,
		"lonSpan": 2.8887,
		"latitude": -33.1395305,
		"longitude": 149.17543799999999
	}, {
		"id": 25,
		"ava_id": "upper_hunter_valley",
		"name": "Upper Hunter Valley",
		"state": "New South Wales",
		"created": "2010-07-29",
		"latSpan": 1.0148,
		"lonSpan": 1.2094,
		"latitude": -32.110406499999996,
		"longitude": 150.856412
	}, {
		"id": 26,
		"ava_id": "mudgee",
		"name": "Mudgee",
		"state": "New South Wales",
		"created": "2000-08-24",
		"latSpan": 1.2757,
		"lonSpan": 1.1825,
		"latitude": -32.48769,
		"longitude": 149.75948549999998
	}, {
		"id": 27,
		"ava_id": "southern_highlands",
		"name": "Southern Highlands",
		"state": "New South Wales",
		"created": "2002-03-25",
		"latSpan": 0.5569,
		"lonSpan": 0.7762,
		"latitude": -34.490836,
		"longitude": 150.35757
	}]
}
