{ "AllRegions": [{"id":0,"country":"Australia","region":"New_South_Wales","ava":[{"id":0,"ava_id":"riverina","name":"Riverina","state":"New South Wales","created":"1998-11-12","latSpan":2.6838,"lonSpan":3.5421,"latitude":-34.3291935,"longitude":145.81346000000002},{"id":1,"ava_id":"gundagai","name":"Gundagai","state":"New South Wales","created":"2002-03-25","latSpan":1.0493,"lonSpan":1.3604,"latitude":-34.9720495,"longitude":147.8847885},{"id":2,"ava_id":"canberra_district","name":"Canberra District","state":"New South Wales","created":"1998-02-09","latSpan":1.1755,"lonSpan":1.0128,"latitude":-34.996679,"longitude":149.028659},{"id":3,"ava_id":"hunter","name":"Hunter","state":"New South Wales","created":"1997-03-18","latSpan":1.536,"lonSpan":2.1577,"latitude":-32.370973,"longitude":150.7536425},{"id":4,"ava_id":"cowra","name":"Cowra","state":"New South Wales","created":"1998-10-16","latSpan":0.6315,"lonSpan":0.3982,"latitude":-33.742906000000005,"longitude":148.6503405},{"id":5,"ava_id":"northern_slopes","name":"Northern Slopes","state":"New South Wales","created":"1996-05-01","latSpan":4.0553,"lonSpan":4.0056,"latitude":-30.276864500000002,"longitude":150.62845},{"id":6,"ava_id":"tumbarumba","name":"Tumbarumba","state":"New South Wales","created":"1998-12-10","latSpan":0.891,"lonSpan":0.6706,"latitude":-35.900081,"longitude":147.92810100000003},{"id":7,"ava_id":"hastings_river","name":"Hastings River","state":"New South Wales","created":"1999-03-25","latSpan":0.4984,"lonSpan":0.4913,"latitude":-31.484686,"longitude":152.728298},{"id":8,"ava_id":"southern_new_south_wales","name":"New South Wales","state":"Southern New South Wales","created":"1996-05-01","latSpan":3.3745,"lonSpan":2.6477,"latitude":-35.5755415,"longitude":149.009703},{"id":9,"ava_id":"western_plains","name":"Western Plains","state":"New South Wales","created":"1996-05-01","latSpan":4.873,"lonSpan":9.3612,"latitude":-30.973641999999998,"longitude":145.6798635},{"id":10,"ava_id":"new_south_wales","name":"New South Wales","state":"New South Wales","created":"1994-01-26","latSpan":4.873,"lonSpan":9.3612,"latitude":-30.973641999999998,"longitude":145.6798635},{"id":11,"ava_id":"perricoota","name":"Perricoota","state":"New South Wales","created":"1999-03-25","latSpan":0.2453,"lonSpan":0.4433,"latitude":-36.007257499999994,"longitude":144.7654405},{"id":12,"ava_id":"broke_fordwich","name":"Broke Fordwich","state":"New South Wales","created":"1997-09-02","latSpan":0.3878,"lonSpan":0.3479,"latitude":-32.760021300000005,"longitude":151.03866965},{"id":13,"ava_id":"hilltops","name":"Hilltops","state":"New South Wales","created":"1998-02-09","latSpan":0.7665,"lonSpan":0.694,"latitude":-34.4400975,"longitude":148.397168},{"id":14,"ava_id":"murray_darling","name":"Murray Darling","state":"New South Wales","created":"1997-06-16","latSpan":1.6235,"lonSpan":3.0022,"latitude":-34.184918,"longitude":142.5024085},{"id":15,"ava_id":"big_rivers","name":"Big Rivers","state":"New South Wales","created":"1995-05-01","latSpan":4.5975,"lonSpan":7.2738,"latitude":-33.831177499999995,"longitude":144.638337},{"id":16,"ava_id":"swan_hill","name":"Swan Hill","state":"New South Wales","created":"1996-06-11","latSpan":0.8096,"lonSpan":0.7251,"latitude":-35.2629655,"longitude":143.5108565},{"id":17,"ava_id":"hunter_valley","name":"Hunter Valley","state":"New South Wales","created":"1996-05-01","latSpan":1.5443,"lonSpan":2.2455,"latitude":-32.3668815,"longitude":150.7959705},{"id":18,"ava_id":"south_coast","name":"South Coast","state":"New South Wales","created":"1996-05-01","latSpan":4.8078,"lonSpan":2.3815,"latitude":-35.101386500000004,"longitude":150.546988},{"id":19,"ava_id":"new_england_australia","name":"New England Australia","state":"New South Wales","created":"2008-01-23","latSpan":2.5268,"lonSpan":1.4763,"latitude":-30.130285,"longitude":151.51183650000002},{"id":20,"ava_id":"shoalhaven_coast","name":"Shoalhaven Coast","state":"New South Wales","created":"2002-08-06","latSpan":1.0524,"lonSpan":0.5818,"latitude":-35.159995499999994,"longitude":150.574511},{"id":21,"ava_id":"orange","name":"Orange","state":"New South Wales","created":"1997-10-31","latSpan":0.8476,"lonSpan":0.6288,"latitude":-33.388552000000004,"longitude":149.1076455},{"id":22,"ava_id":"northern_rivers","name":"Northern Rivers","state":"New South Wales","created":"1996-05-01","latSpan":4.6789,"lonSpan":2.4034,"latitude":-30.496438,"longitude":152.436926},{"id":23,"ava_id":"pokolbin","name":"Pokolbin","state":"New South Wales","created":"2010-07-29","latSpan":0.1951,"lonSpan":0.1256,"latitude":-32.7657735,"longitude":151.2956765},{"id":24,"ava_id":"central_ranges","name":"Central Ranges","state":"New South Wales","created":"1996-05-01","latSpan":2.1326,"lonSpan":2.8887,"latitude":-33.1395305,"longitude":149.17543799999999},{"id":25,"ava_id":"upper_hunter_valley","name":"Upper Hunter Valley","state":"New South Wales","created":"2010-07-29","latSpan":1.0148,"lonSpan":1.2094,"latitude":-32.110406499999996,"longitude":150.856412},{"id":26,"ava_id":"mudgee","name":"Mudgee","state":"New South Wales","created":"2000-08-24","latSpan":1.2757,"lonSpan":1.1825,"latitude":-32.48769,"longitude":149.75948549999998},{"id":27,"ava_id":"southern_highlands","name":"Southern Highlands","state":"New South Wales","created":"2002-03-25","latSpan":0.5569,"lonSpan":0.7762,"latitude":-34.490836,"longitude":150.35757}]},{"id":1,"country":"Australia","region":"Queensland","ava":[{"id":0,"ava_id":"granite_belt","name":"Granite Belt","state":"Queensland","created":"2002-03-25","latSpan":0.4914,"lonSpan":0.3235,"latitude":-28.71763,"longitude":151.9142835},{"id":1,"ava_id":"south_burnett","name":"South Burnett","state":"Queensland","created":"2000-12-08","latSpan":1.0672,"lonSpan":1.0292,"latitude":-26.465023,"longitude":151.7053645},{"id":2,"ava_id":"queensland","name":"queensland","state":"Queensland","created":"2002-03-25","latSpan":1.0672,"lonSpan":1.0292,"latitude":-26.465023,"longitude":151.7053645}]},{"id":2,"country":"Australia","region":"South_Australia","ava":[{"id":0,"ava_id":"mount_gambier","name":"Mount Gambier","state":"South Australia","created":"2010-12-21","latSpan":0.5969,"lonSpan":0.6125,"latitude":-37.763036,"longitude":140.66768100000002},{"id":1,"ava_id":"south_australia","name":"South Australia","state":"South Australia","created":"1994-01-26","latSpan":7.3369,"lonSpan":12.0004,"latitude":-29.664831,"longitude":135.002066},{"id":2,"ava_id":"mclaren_vale","name":"McLaren Vale","state":"South Australia","created":"1997-09-02","latSpan":0.3001,"lonSpan":0.2493,"latitude":-35.198710500000004,"longitude":138.56609550000002},{"id":3,"ava_id":"currency_creek","name":"Currency Creek","state":"South Australia","created":"2001-04-09","latSpan":0.23,"lonSpan":0.3908,"latitude":-35.4470245,"longitude":138.85247950000002},{"id":4,"ava_id":"eden_valley","name":"Eden Valley","state":"South Australia","created":"1997-08-15","latSpan":0.3681,"lonSpan":0.2562,"latitude":-34.591494499999996,"longitude":139.06572849999998},{"id":5,"ava_id":"barossa_valley","name":"Barossa Valley","state":"South Australia","created":"1997-08-15","latSpan":0.3624,"lonSpan":0.2981,"latitude":-34.531695,"longitude":138.97393499999998},{"id":6,"ava_id":"langhorne_creek","name":"Langhorne Creek","state":"South Australia","created":"1998-10-16","latSpan":0.1711,"lonSpan":0.235,"latitude":-35.3199885,"longitude":139.03761550000002},{"id":7,"ava_id":"Fleurieu","name":"Fleurieu","state":"South Australia","created":"1996-12-27","latSpan":0.6994,"lonSpan":1.072,"latitude":-35.3161945,"longitude":138.62855},{"id":8,"ava_id":"riverland","name":"Riverland","state":"South Australia","created":"1998-12-10","latSpan":0.5,"lonSpan":1.3833,"latitude":-34.249987,"longitude":140.27500700000002},{"id":9,"ava_id":"southern_flinders_ranges","name":"Southern Flinders Ranges","state":"South Australia","created":"2003-08-19","latSpan":0.9302,"lonSpan":0.777,"latitude":-33.005916,"longitude":138.304497},{"id":10,"ava_id":"lower_murray","name":"Lower Murray","state":"South Australia","created":"1996-12-07","latSpan":2.4935,"lonSpan":2.1227,"latitude":-34.569014,"longitude":139.9414535},{"id":11,"ava_id":"high_eden","name":"High Eden","state":"South Australia","created":"2001-08-21","latSpan":0.0968,"lonSpan":0.0739,"latitude":-34.6340795,"longitude":139.018255},{"id":12,"ava_id":"the_peninsulas","name":"The Peninsulas","state":"South Australia","created":"1996-12-27","latSpan":1.8669,"lonSpan":2.7975,"latitude":-34.0643132,"longitude":135.99136605},{"id":13,"ava_id":"robe","name":"Robe","state":"South Australia","created":"2006-08-15","latSpan":0.5023,"lonSpan":0.445,"latitude":-37.2413065,"longitude":139.96134949999998},{"id":14,"ava_id":"padthaway","name":"Padthaway","state":"South Australia","created":"1999-11-29","latSpan":0.4786,"lonSpan":0.3899,"latitude":-36.7058575,"longitude":140.54386899999997},{"id":15,"ava_id":"kangaroo_island","name":"Kangaroo Island","state":"South Australia","created":"2000-12-08","latSpan":0.5146,"lonSpan":1.6023,"latitude":-35.818396,"longitude":137.333561},{"id":16,"ava_id":"southern_fleurieu","name":"Southern Fleurieu","state":"South Australia","created":"2001-06-06","latSpan":0.4041,"lonSpan":0.6766,"latitude":-35.463839,"longitude":138.431936},{"id":17,"ava_id":"clare_valley","name":"Clare Valley","state":"South Australia","created":"1999-03-25","latSpan":0.4011,"lonSpan":0.2589,"latitude":-33.906487,"longitude":138.63253650000001},{"id":18,"ava_id":"mount_benson","name":"Mount Benson","state":"South Australia","created":"1997-03-18","latSpan":0.1866,"lonSpan":0.2331,"latitude":-37.0336935,"longitude":139.78662},{"id":19,"ava_id":"piccadilly_valley","name":"Piccadilly Valley","state":"South Australia","created":"2000-04-14","latSpan":0.0822,"lonSpan":0.0885,"latitude":-34.974158,"longitude":138.7463615},{"id":20,"ava_id":"far_north","name":"Far North","state":"South Australia","created":"1996-12-27","latSpan":7.3369,"lonSpan":12.0004,"latitude":-29.664831,"longitude":135.002066},{"id":21,"ava_id":"lenswood","name":"Lenswood","state":"South Australia","created":"1998-10-16","latSpan":0.0769,"lonSpan":0.0875,"latitude":-34.925632500000006,"longitude":138.8229665},{"id":22,"ava_id":"barossa","name":"Barossa","state":"South Australia","created":"1997-08-15","latSpan":0.5012,"lonSpan":0.5199,"latitude":-34.5572495,"longitude":139.0033615},{"id":23,"ava_id":"limestone_coast","name":"Limestone Coast","state":"South Australia","created":"2000-12-08","latSpan":2.2546,"lonSpan":1.6847,"latitude":-36.935404500000004,"longitude":140.130993},{"id":24,"ava_id":"adelaide_hills","name":"Adelaide Hills","state":"South Australia","created":"1996-12-27","latSpan":0.6617,"lonSpan":0.5053,"latitude":-35.018673,"longitude":138.831302},{"id":25,"ava_id":"adelaide_plains","name":"Adelaide Plains","state":"South Australia","created":"2002-03-25","latSpan":0.4104,"lonSpan":0.3872,"latitude":-34.647343,"longitude":138.5595355},{"id":26,"ava_id":"wrattonbully","name":"Wrattonbully","state":"South Australia","created":"2005-07-05","latSpan":0.4041,"lonSpan":0.2746,"latitude":-37.0244675,"longitude":140.853402},{"id":27,"ava_id":"coonawarra","name":"Coonawarra","state":"South Australia","created":"2003-01-06","latSpan":0.3269,"lonSpan":0.22,"latitude":-37.3021945,"longitude":140.8630655},{"id":28,"ava_id":"mount_lofty_ranges","name":"Mount Lofty Ranges","state":"South Australia","created":"1996-12-27","latSpan":2.0241,"lonSpan":1.2171,"latitude":-34.337479,"longitude":138.7496265}]},{"id":3,"country":"Australia","region":"South_Eastern","ava":[{"id":0,"ava_id":"south_eastern","name":"South Eastern","state":"South Eastern","created":"1996-05-01","latSpan":4.873,"lonSpan":9.3612,"latitude":-30.973641999999998,"longitude":145.6798635}]},{"id":4,"country":"Australia","region":"Victoria","ava":[{"id":0,"ava_id":"sunbury","name":"Sunbury","state":"Victoria","created":"1998-12-10","latSpan":0.3729,"lonSpan":0.5396,"latitude":-37.637591,"longitude":144.703204},{"id":1,"ava_id":"grampians","name":"Grampians","state":"Victoria","created":"1997-06-16","latSpan":1.1352,"lonSpan":1.1855,"latitude":-37.325203,"longitude":142.71387299999998},{"id":2,"ava_id":"upper_goulburn","name":"Upper Goulburn","state":"Victoria","created":"2003-10-14","latSpan":0.7192,"lonSpan":1.3697,"latitude":-37.1291425,"longitude":145.7541565},{"id":3,"ava_id":"alpine_valleys","name":"Alpine Valleys","state":"Victoria","created":"1999-11-29","latSpan":0.7536,"lonSpan":0.8539,"latitude":-36.605965499999996,"longitude":146.8788895},{"id":4,"ava_id":"great_western","name":"Great Western","state":"Victoria","created":"2007-04-05","latSpan":0.253,"lonSpan":0.2846,"latitude":-37.224095500000004,"longitude":142.818989},{"id":5,"ava_id":"port_phillip","name":"Port Phillip","state":"Victoria","created":"1996-05-01","latSpan":1.6267,"lonSpan":2.6629,"latitude":-37.912525,"longitude":144.9400885},{"id":6,"ava_id":"geelong","name":"Geelong","state":"Victoria","created":"1996-06-11","latSpan":0.6191,"lonSpan":0.8079,"latitude":-38.105328,"longitude":144.316288},{"id":7,"ava_id":"Gippsland","name":"Gippsland","state":"Victoria","created":"1996-05-01","latSpan":2.528,"lonSpan":4.6133,"latitude":-37.8726485,"longitude":147.66987849999998},{"id":8,"ava_id":"beechworth","name":"Beechworth","state":"Victoria","created":"2000-12-08","latSpan":0.2077,"lonSpan":0.2688,"latitude":-36.355385,"longitude":146.677498},{"id":9,"ava_id":"strathbogie_ranges","name":"Strathbogie Ranges","state":"Victoria","created":"2002-03-25","latSpan":0.5355,"lonSpan":0.7749,"latitude":-36.865082,"longitude":145.58984099999998},{"id":10,"ava_id":"glenrowan","name":"Glenrowan","state":"Victoria","created":"2003-10-14","latSpan":0.457,"lonSpan":0.4977,"latitude":-36.385152000000005,"longitude":146.07980049999998},{"id":11,"ava_id":"murray_darling","name":"Murray Darling","state":"Victoria","created":"1997-06-16","latSpan":1.6235,"lonSpan":3.0022,"latitude":-34.184918,"longitude":142.5024085},{"id":12,"ava_id":"henty","name":"Henty","state":"Victoria","created":"2000-08-24","latSpan":1.2809,"lonSpan":1.7447,"latitude":-37.7924595,"longitude":141.83815049999998},{"id":13,"ava_id":"heathcote","name":"Heathcote","state":"Victoria","created":"2002-08-21","latSpan":0.747,"lonSpan":0.5295,"latitude":-36.7450275,"longitude":144.68301400000001},{"id":14,"ava_id":"north_east_victoria","name":"North East Victoria","state":"Victoria","created":"1996-05-01","latSpan":1.3551,"lonSpan":2.4452,"latitude":-36.606101499999994,"longitude":146.998083},{"id":15,"ava_id":"victoria","name":"Victoria","state":"Victoria","created":"1994-01-26","latSpan":2.4523,"lonSpan":3.1871,"latitude":-37.6315145,"longitude":142.5593245},{"id":16,"ava_id":"rutherglen","name":"Rutherglen","state":"Victoria","created":"1997-09-02","latSpan":0.3056,"lonSpan":0.6466,"latitude":-36.1109505,"longitude":146.4984435},{"id":17,"ava_id":"swan_hill","name":"Swan Hill","state":"Victoria","created":"1996-06-11","latSpan":0.8096,"lonSpan":0.7251,"latitude":-35.2629655,"longitude":143.5108565},{"id":18,"ava_id":"bendigo","name":"Bendigo","state":"Victoria","created":"2001-06-27","latSpan":0.8196,"lonSpan":1.2056,"latitude":-36.857921000000005,"longitude":144.0624525},{"id":19,"ava_id":"goulburn_valley","name":"Goulburn Valley","state":"Victoria","created":"1999-11-29","latSpan":1.4047,"lonSpan":1.3991,"latitude":-36.504345,"longitude":145.37286699999999},{"id":20,"ava_id":"nagambie_lakes","name":"Nagambie Lakes","state":"Victoria","created":"2001-04-09","latSpan":0.2155,"lonSpan":0.1675,"latitude":-36.8048105,"longitude":145.13431400000002},{"id":21,"ava_id":"western_victoria","name":"Western Victoria","state":"Victoria","created":"1996-05-01","latSpan":2.4523,"lonSpan":3.1871,"latitude":-37.6315145,"longitude":142.5593245},{"id":22,"ava_id":"macedon_ranges","name":"Macedon Ranges","state":"Victoria","created":"2002-08-21","latSpan":0.4735,"lonSpan":0.8623,"latitude":-37.3203355,"longitude":144.47488049999998},{"id":23,"ava_id":"king_valley","name":"King Valley","state":"Victoria","created":"2007-10-12","latSpan":0.6267,"lonSpan":0.4726,"latitude":-36.669433999999995,"longitude":146.4360035},{"id":24,"ava_id":"central_victoria","name":"Central Victoria","state":"Victoria","created":"1996-05-01","latSpan":1.8262,"lonSpan":3.3318,"latitude":-36.715110499999994,"longitude":144.981115},{"id":25,"ava_id":"pyrenees","name":"Pyrenees","state":"Victoria","created":"2000-06-29","latSpan":0.7393,"lonSpan":0.6834,"latitude":-36.9863275,"longitude":143.34063700000002},{"id":26,"ava_id":"yarra_valley","name":"Yarra Valley","state":"Victoria","created":"1996-10-30","latSpan":0.5348,"lonSpan":1.0797,"latitude":-37.7110605,"longitude":145.623287},{"id":27,"ava_id":"mornington_peninsula","name":"Mornington Peninsula","state":"Victoria","created":"1997-03-18","latSpan":0.337,"lonSpan":0.6113,"latitude":-38.330884499999996,"longitude":144.95705249999997}]},{"id":5,"country":"Australia","region":"Western_Australia","ava":[{"id":0,"ava_id":"albany","name":"Albany","state":"Western Australia","created":"1999-07-28","latSpan":0.3399,"lonSpan":0.6037,"latitude":-34.9648995,"longitude":117.795344},{"id":1,"ava_id":"great_southern","name":"Great Southern","state":"Western Australia","created":"1996-10-30","latSpan":1.0027,"lonSpan":2.3431,"latitude":-34.633484499999994,"longitude":117.7432135},{"id":2,"ava_id":"perth_hills","name":"Perth Hills","state":"Western Australia","created":"1999-03-25","latSpan":1.1711,"lonSpan":0.3495,"latitude":-31.913592,"longitude":116.1640455},{"id":3,"ava_id":"peel","name":"Peel","state":"Western Australia","created":"2001-09-04","latSpan":0.965,"lonSpan":1.3104,"latitude":-32.6867885,"longitude":116.2619645},{"id":4,"ava_id":"pemberton","name":"Pemberton","state":"Western Australia","created":"2006-02-14","latSpan":0.5677,"lonSpan":0.6112,"latitude":-34.53508,"longitude":116.0481895},{"id":5,"ava_id":"porongurup","name":"Porongurup","state":"Western Australia","created":"1999-07-28","latSpan":0.1635,"lonSpan":0.316,"latitude":-34.661170999999996,"longitude":117.92957949999999},{"id":6,"ava_id":"swan_district","name":"Swan District","state":"Western Australia","created":"1998-12-10","latSpan":0.9493,"lonSpan":0.5505,"latitude":-31.603873,"longitude":115.804191},{"id":7,"ava_id":"frankland_river","name":"Frankland River","state":"Western Australia","created":"2000-08-24","latSpan":0.406,"lonSpan":0.4358,"latitude":-34.3714455,"longitude":117.001672},{"id":8,"ava_id":"mount_barker","name":"Mount Barker","state":"Western Australia","created":"1997-08-15","latSpan":0.3233,"lonSpan":0.4385,"latitude":-34.637189500000005,"longitude":117.5474915},{"id":9,"ava_id":"greater_perth","name":"Greater Perth","state":"Western Australia","created":"1996-05-01","latSpan":2.8684,"lonSpan":1.4233,"latitude":-31.5086965,"longitude":115.703528},{"id":10,"ava_id":"blackwood_valley","name":"Blackwood Valley","state":"Western Australia","created":"1998-12-10","latSpan":0.7147,"lonSpan":1.2384,"latitude":-33.913296,"longitude":116.18231499999999},{"id":11,"ava_id":"west_australian_south_east_coastal","name":"West Australian South East Coastal","state":"Western Australia","created":"1996-05-01","latSpan":1.9766,"lonSpan":6.39,"latitude":-33.5533715,"longitude":121.0493045},{"id":12,"ava_id":"swan_valley","name":"Swan Valley","state":"Western Australia","created":"2003-01-06","latSpan":0.1446,"lonSpan":0.1198,"latitude":-31.823311500000003,"longitude":116.01956799999999},{"id":13,"ava_id":"denmark","name":"Denmark","state":"Western Australia","created":"2003-01-06","latSpan":0.2597,"lonSpan":0.7603,"latitude":-34.960103000000004,"longitude":117.115088},{"id":14,"ava_id":"eastern_plains,_inland_and_north_of_western_australia","name":"Eastern Plains, Inland and North of Western Australia","state":"Western Australia","created":"1996-05-01","latSpan":20.0635,"lonSpan":15.8456,"latitude":-23.772964,"longitude":121.0790715},{"id":15,"ava_id":"margaret_river","name":"Margaret River","state":"Western Australia","created":"1996-10-30","latSpan":0.8469,"lonSpan":0.3268,"latitude":-33.95327399999999,"longitude":115.138069},{"id":16,"ava_id":"geographe","name":"Geographe","state":"Western Australia","created":"1999-03-25","latSpan":1.0617,"lonSpan":1.0264,"latitude":-33.407737999999995,"longitude":115.8146175},{"id":17,"ava_id":"south_west_australia","name":"South West Australia","state":"Western Australia","created":"1996-05-01","latSpan":2.2129,"lonSpan":3.807,"latitude":-34.028376,"longitude":116.8781985},{"id":18,"ava_id":"central_western_australia","name":"Central Western Australia","state":"Western Australia","created":"1996-05-01","latSpan":4.0949,"lonSpan":2.1127,"latitude":-32.210415999999995,"longitude":116.9325095},{"id":19,"ava_id":"western_australia","name":"Western Australia","state":"Western Australia","created":"1994-01-26","latSpan":2.8684,"lonSpan":1.4233,"latitude":-31.5086965,"longitude":115.703528},{"id":20,"ava_id":"manjimup","name":"Manjimup","state":"Western Australia","created":"2006-02-14","latSpan":0.4536,"lonSpan":0.8528,"latitude":-34.3560815,"longitude":116.34309400000001}]},{"id":6,"country":"France","region":"Bordeaux","ava":[{"id":0,"ava_id":"st._estephe","name":"St. Est\u00e8phe","state":"Bordeaux","created":"","latSpan":0.0616,"lonSpan":0.0701,"latitude":45.253162925008155,"longitude":-0.7810885531400029},{"id":1,"ava_id":"st._emilion_grand_cru","name":"St. \u00c9milion Grand Cru","state":"Bordeaux","created":"","latSpan":0.1197,"lonSpan":0.1956,"latitude":44.89231310327772,"longitude":-0.165406299191521},{"id":2,"ava_id":"Bordeaux","name":"Bordeaux","state":"Bordeaux","created":"","latSpan":0.12,"lonSpan":0.1364,"latitude":45.01649110790207,"longitude":-0.686376253210609},{"id":3,"ava_id":"pauillac","name":"Pauillac","state":"Bordeaux","created":"","latSpan":0.0633,"lonSpan":0.0623,"latitude":45.1983665360094,"longitude":-0.7662482049832919},{"id":4,"ava_id":"margaux","name":"Margaux","state":"Bordeaux","created":"","latSpan":0.12,"lonSpan":0.1364,"latitude":45.01649110790207,"longitude":-0.686376253210609},{"id":5,"ava_id":"graves","name":"Graves","state":"Bordeaux","created":"","latSpan":0.4257,"lonSpan":0.665,"latitude":44.685431035665374,"longitude":-0.5049647155176945}]},{"id":7,"country":"USA","region":"Arizona","ava":[{"id":0,"ava_id":"willcox","name":"Willcox","state":"Arizona","created":"2016-10-12","latSpan":0.8053,"lonSpan":0.5863,"latitude":32.22056398995767,"longitude":-109.80050080844188},{"id":1,"ava_id":"verde_valley","name":"Verde Valley","state":"Arizona","created":"2021-12-10","latSpan":0.3504,"lonSpan":0.3771,"latitude":34.685569099254096,"longitude":-111.94545748115328},{"id":2,"ava_id":"arizona","name":"Arizona","state":"Arizona","created":"2016-10-12","latSpan":0.8053,"lonSpan":0.5863,"latitude":32.22056398995767,"longitude":-109.80050080844188},{"id":3,"ava_id":"sonoita","name":"Sonoita","state":"Arizona","created":"1984-11-26","latSpan":0.2925,"lonSpan":0.4655,"latitude":31.629013290071875,"longitude":-110.61526427873025}]},{"id":8,"country":"USA","region":"Arkansas","ava":[{"id":0,"ava_id":"altus","name":"Altus","state":"Arkansas","created":"1984-05-30","latSpan":0.1327,"lonSpan":0.2237,"latitude":35.47136743115614,"longitude":-93.71484616854032},{"id":1,"ava_id":"ozark_mountain","name":"Ozark Mountain","state":"Arkansas|Missouri|Oklahoma","created":"1986-08-01","latSpan":3.8389,"lonSpan":5.803,"latitude":36.97159901586202,"longitude":-92.40911831077271},{"id":2,"ava_id":"arkansas","name":"Arkansas","state":"Arkansas","created":"","latSpan":3.4954,"lonSpan":4.931,"latitude":34.751801,"longitude":-92.1524215},{"id":3,"ava_id":"arkansas_mountain","name":"Arkansas Mountain","state":"Arkansas","created":"1986-09-26","latSpan":0.8125,"lonSpan":1.9152,"latitude":35.45840116268131,"longitude":-93.34678008361118}]},{"id":9,"country":"USA","region":"California","ava":[{"id":0,"ava_id":"tracy_hills","name":"Tracy Hills","state":"California","created":"2006-12-08","latSpan":0.1377,"lonSpan":0.2373,"latitude":37.634247884973846,"longitude":-121.3876891582241},{"id":1,"ava_id":"los_carneros","name":"Los Carneros","state":"California","created":"1983-09-19","latSpan":0.1529,"lonSpan":0.2626,"latitude":38.227236250000004,"longitude":-122.41358085000002},{"id":2,"ava_id":"alexander_valley","name":"Alexander Valley","state":"California","created":"1984-11-23","latSpan":0.2674,"lonSpan":0.3571,"latitude":38.719084293996765,"longitude":-122.90267920143552},{"id":3,"ava_id":"monterey","name":"Monterey","state":"California","created":"1984-06-15","latSpan":1.1281,"lonSpan":1.1807,"latitude":36.355762888507854,"longitude":-121.38862987164245},{"id":4,"ava_id":"diablo_grande","name":"Diablo Grande","state":"California","created":"1998-08-21","latSpan":0.1557,"lonSpan":0.1511,"latitude":37.356823938998716,"longitude":-121.27649364547221},{"id":5,"ava_id":"bennett_valley","name":"Bennett Valley","state":"California","created":"2003-12-29","latSpan":0.0761,"lonSpan":0.0884,"latitude":38.39357222518552,"longitude":-122.63051464311155},{"id":6,"ava_id":"palos_verdes_peninsula","name":"Palos Verdes Peninsula","state":"California","created":"2021-07-19","latSpan":0.0823,"lonSpan":0.1197,"latitude":33.76313051740972,"longitude":-118.36859027435078},{"id":7,"ava_id":"mcdowell_valley","name":"McDowell Valley","state":"California","created":"1982-01-04","latSpan":0.0455,"lonSpan":0.0439,"latitude":38.96892853209805,"longitude":-123.04297688670869},{"id":8,"ava_id":"oakville","name":"Oakville","state":"California","created":"1993-08-02","latSpan":0.0664,"lonSpan":0.1077,"latitude":38.43179174324874,"longitude":-122.38406165942962},{"id":9,"ava_id":"happy_canyon_of_santa_barbara","name":"Happy Canyon of Santa Barbara","state":"California","created":"2009-11-09","latSpan":0.1544,"lonSpan":0.1016,"latitude":34.66562764689736,"longitude":-120.00006317492125},{"id":10,"ava_id":"squaw_valley-miramonte","name":"Squaw Valley-Miramonte","state":"California","created":"2015-09-08","latSpan":0.1172,"lonSpan":0.2429,"latitude":36.71606057921065,"longitude":-119.15856166656596},{"id":11,"ava_id":"solano_county_green_valley","name":"Solano County Green Valley","state":"California","created":"1983-01-28","latSpan":0.1096,"lonSpan":0.0824,"latitude":38.26106311656996,"longitude":-122.17554085077381},{"id":12,"ava_id":"sonoma_mountain","name":"Sonoma Mountain","state":"California","created":"1985-02-22","latSpan":0.0741,"lonSpan":0.098,"latitude":38.35148031220271,"longitude":-122.56628647705199},{"id":13,"ava_id":"ballard_canyon","name":"Ballard Canyon","state":"California","created":"2013-11-01","latSpan":0.076,"lonSpan":0.0615,"latitude":34.64217873670856,"longitude":-120.15174056753989},{"id":14,"ava_id":"el_pomar_district","name":"El Pomar District","state":"California","created":"2014-11-10","latSpan":0.12,"lonSpan":0.1322,"latitude":35.56342257646598,"longitude":-120.61662908235041},{"id":15,"ava_id":"malibu-newton_canyon","name":"Malibu-Newton Canyon","state":"California","created":"1996-06-13","latSpan":0.0163,"lonSpan":0.0395,"latitude":34.08123431809254,"longitude":-118.79929603828921},{"id":16,"ava_id":"anderson_valley","name":"Anderson Valley","state":"California","created":"1983-09-19","latSpan":0.2092,"lonSpan":0.3448,"latitude":39.06369706684768,"longitude":-123.46255096707877},{"id":17,"ava_id":"lime_kiln_valley","name":"Lime Kiln Valley","state":"California","created":"1982-07-06","latSpan":0.0351,"lonSpan":0.0555,"latitude":36.693929053508754,"longitude":-121.34791458996833},{"id":18,"ava_id":"green_valley_of_russian_river_valley","name":"Green Valley of Russian River Valley","state":"California","created":"1983-12-21","latSpan":0.125,"lonSpan":0.1211,"latitude":38.4405663860372,"longitude":-122.88471008011436},{"id":19,"ava_id":"san_miguel_district","name":"San Miguel District","state":"California","created":"2014-11-10","latSpan":0.0989,"lonSpan":0.1397,"latitude":35.74174553733245,"longitude":-120.69580995131778},{"id":20,"ava_id":"paso_robles_willow_creek_district","name":"Paso Robles Willow Creek District","state":"California","created":"2014-11-10","latSpan":0.0855,"lonSpan":0.1404,"latitude":35.58437242111073,"longitude":-120.7623069021997},{"id":21,"ava_id":"rutherford","name":"Rutherford","state":"California","created":"1993-08-02","latSpan":0.0647,"lonSpan":0.0955,"latitude":38.4674356,"longitude":-122.41729915},{"id":22,"ava_id":"fair_play","name":"Fair Play","state":"California","created":"2001-04-27","latSpan":0.1074,"lonSpan":0.1481,"latitude":38.59926995332239,"longitude":-120.66814689072368},{"id":23,"ava_id":"petaluma_gap","name":"Petaluma Gap","state":"California","created":"2018-01-08","latSpan":0.2675,"lonSpan":0.6459,"latitude":38.2388592,"longitude":-122.7556371},{"id":24,"ava_id":"central_coast","name":"Central Coast","state":"California","created":"1985-11-25","latSpan":3.6635,"lonSpan":2.9557,"latitude":36.226560011910664,"longitude":-121.04305639593133},{"id":25,"ava_id":"stags_leap_district","name":"Stags Leap District","state":"California","created":"1989-02-27","latSpan":0.0527,"lonSpan":0.0538,"latitude":38.404465721560825,"longitude":-122.32494192039354},{"id":26,"ava_id":"redwood_valley","name":"Redwood Valley","state":"California","created":"1997-02-21","latSpan":0.1295,"lonSpan":0.13,"latitude":39.3007333,"longitude":-123.19676991334299},{"id":27,"ava_id":"sonoma_valley","name":"Sonoma Valley","state":"California","created":"1982-01-04","latSpan":0.3552,"lonSpan":0.325,"latitude":38.29367646885994,"longitude":-122.51222138963067},{"id":28,"ava_id":"sonoma_coast","name":"Sonoma Coast","state":"California","created":"1987-07-13","latSpan":0.6673,"lonSpan":1.184,"latitude":38.445294700000005,"longitude":-122.9417349},{"id":29,"ava_id":"fiddletown","name":"Fiddletown","state":"California","created":"1983-11-03","latSpan":0.0565,"lonSpan":0.1114,"latitude":38.49546009259197,"longitude":-120.7436386126304},{"id":30,"ava_id":"arroyo_grande_valley","name":"Arroyo Grande Valley","state":"California","created":"1990-02-05","latSpan":0.1426,"lonSpan":0.2059,"latitude":35.14815595001841,"longitude":-120.4859278318438},{"id":31,"ava_id":"st._helena","name":"St. Helena","state":"California","created":"1995-10-11","latSpan":0.0908,"lonSpan":0.1052,"latitude":38.52100841768396,"longitude":-122.46447687587089},{"id":32,"ava_id":"san_benito","name":"San Benito","state":"California","created":"1987-11-04","latSpan":0.1713,"lonSpan":0.1951,"latitude":36.71062007736007,"longitude":-121.31452104244178},{"id":33,"ava_id":"pacheco_pass","name":"Pacheco Pass","state":"California","created":"1984-04-11","latSpan":0.0591,"lonSpan":0.0283,"latitude":36.970385434682385,"longitude":-121.37813178242605},{"id":34,"ava_id":"cucamonga_valley","name":"Cucamonga Valley","state":"California","created":"1995-05-01","latSpan":0.2661,"lonSpan":0.348,"latitude":34.05403196820959,"longitude":-117.47712059399204},{"id":35,"ava_id":"howell_mountain","name":"Howell Mountain","state":"California","created":"1984-01-30","latSpan":0.1068,"lonSpan":0.1425,"latitude":38.57894594126221,"longitude":-122.45044118892858},{"id":36,"ava_id":"trinity_lakes","name":"Trinity Lakes","state":"California","created":"2005-04-29","latSpan":0.453,"lonSpan":0.3509,"latitude":40.87707881109331,"longitude":-122.76446002479199},{"id":37,"ava_id":"upper_lake_valley","name":"Upper Lake Valley","state":"California","created":"2022-07-05","latSpan":0.1145,"lonSpan":0.1941,"latitude":39.1566821,"longitude":-122.90167629999999},{"id":38,"ava_id":"saddle_rock-malibu","name":"Saddle Rock-Malibu","state":"California","created":"2006-08-16","latSpan":0.0325,"lonSpan":0.057,"latitude":34.098140615164354,"longitude":-118.82989401715086},{"id":39,"ava_id":"clear_lake","name":"Clear Lake","state":"California","created":"1984-06-07","latSpan":0.3734,"lonSpan":0.4685,"latitude":39.02905784871083,"longitude":-122.76447430981932},{"id":40,"ava_id":"san_luis_obispo_coast","name":"San Luis Obispo Coast","state":"California","created":"2022-04-08","latSpan":0.774,"lonSpan":0.9677,"latitude":35.37902128694239,"longitude":-120.84408812232851},{"id":41,"ava_id":"ben_lomond_mountain","name":"Ben Lomond Mountain","state":"California","created":"1988-01-08","latSpan":0.1649,"lonSpan":0.1912,"latitude":37.07936485570029,"longitude":-122.14724153161875},{"id":42,"ava_id":"sierra_pelona_valley","name":"Sierra Pelona Valley","state":"California","created":"2010-08-23","latSpan":0.0817,"lonSpan":0.1245,"latitude":34.50896289389698,"longitude":-118.30977451089316},{"id":43,"ava_id":"mt._harlan","name":"Mt. Harlan","state":"California","created":"1990-12-17","latSpan":0.05,"lonSpan":0.1198,"latitude":36.69685083572324,"longitude":-121.41185725607207},{"id":44,"ava_id":"guenoc_valley","name":"Guenoc Valley","state":"California","created":"1981-12-21","latSpan":0.0572,"lonSpan":0.0634,"latitude":38.74314897382635,"longitude":-122.51702283717131},{"id":45,"ava_id":"coombsville","name":"Coombsville","state":"California","created":"2002-01-13","latSpan":0.0815,"lonSpan":0.083,"latitude":38.30599957632127,"longitude":-122.24435381590621},{"id":46,"ava_id":"california","name":"California","state":"California","created":"2002-03-25","latSpan":0.142,"lonSpan":0.2782,"latitude":33.9667205,"longitude":-120.10937200000001},{"id":47,"ava_id":"pine_mountain-cloverdale_peak","name":"Pine Mountain-Cloverdale Peak","state":"California","created":"2011-11-28","latSpan":0.0445,"lonSpan":0.0668,"latitude":38.856654301414395,"longitude":-122.97328920326947},{"id":48,"ava_id":"alta_mesa","name":"Alta Mesa","state":"California","created":"2006-08-16","latSpan":0.1992,"lonSpan":0.2305,"latitude":38.338661638985585,"longitude":-121.28659031013959},{"id":49,"ava_id":"paicines","name":"Paicines","state":"California","created":"1982-09-15","latSpan":0.1278,"lonSpan":0.0924,"latitude":36.68885666139563,"longitude":-121.26316705338925},{"id":50,"ava_id":"mt._veeder","name":"Mt. Veeder","state":"California","created":"1990-03-22","latSpan":0.1614,"lonSpan":0.1536,"latitude":38.358187087059335,"longitude":-122.4210578510199},{"id":51,"ava_id":"santa_margarita_ranch","name":"Santa Margarita Ranch","state":"California","created":"2014-11-10","latSpan":0.1151,"lonSpan":0.1331,"latitude":35.37352702661403,"longitude":-120.59010767038012},{"id":52,"ava_id":"willow_creek","name":"Willow Creek","state":"California","created":"1983-09-19","latSpan":0.1131,"lonSpan":0.1143,"latitude":40.92929135279495,"longitude":-123.61439122603193},{"id":53,"ava_id":"san_pasqual_valley","name":"San Pasqual Valley","state":"California","created":"1981-09-16","latSpan":0.1101,"lonSpan":0.1556,"latitude":33.078781750000005,"longitude":-116.99519885},{"id":54,"ava_id":"york_mountain","name":"York Mountain","state":"California","created":"1983-09-23","latSpan":0.0611,"lonSpan":0.0956,"latitude":35.55090510447134,"longitude":-120.81596202911263},{"id":55,"ava_id":"rockpile","name":"Rockpile","state":"California","created":"2002-04-29","latSpan":0.1002,"lonSpan":0.191,"latitude":38.75898695,"longitude":-123.1509388},{"id":56,"ava_id":"malibu_coast","name":"Malibu Coast","state":"California","created":"2014-08-18","latSpan":0.2052,"lonSpan":0.5163,"latitude":34.102789057662854,"longitude":-118.82299585683484},{"id":57,"ava_id":"suisun_valley","name":"Suisun Valley","state":"California","created":"1982-12-27","latSpan":0.1057,"lonSpan":0.0856,"latitude":38.26311487502385,"longitude":-122.09269812694195},{"id":58,"ava_id":"atlas_peak","name":"Atlas Peak","state":"California","created":"1992-02-24","latSpan":0.0925,"lonSpan":0.1056,"latitude":38.42297717468948,"longitude":-122.26329665264551},{"id":59,"ava_id":"yountville","name":"Yountville","state":"California","created":"1999-05-18","latSpan":0.0821,"lonSpan":0.1191,"latitude":38.39995116807428,"longitude":-122.36348428463734},{"id":60,"ava_id":"russian_river_valley","name":"Russian River Valley","state":"California","created":"1983-11-21","latSpan":0.3518,"lonSpan":0.3573,"latitude":38.47644688160912,"longitude":-122.8523705787241},{"id":61,"ava_id":"oak_knoll_district_of_napa_valley","name":"Oak Knoll District of Napa Valley","state":"California","created":"2004-04-26","latSpan":0.0679,"lonSpan":0.0953,"latitude":38.34845209999999,"longitude":-122.32159259999997},{"id":62,"ava_id":"knights_valley","name":"Knights Valley","state":"California","created":"1983-11-21","latSpan":0.1748,"lonSpan":0.138,"latitude":38.648667953071936,"longitude":-122.69210634470156},{"id":63,"ava_id":"inwood_valley","name":"Inwood Valley","state":"California","created":"2012-10-15","latSpan":0.1126,"lonSpan":0.2328,"latitude":40.527095539502156,"longitude":-121.9753020643358},{"id":64,"ava_id":"arroyo_seco","name":"Arroyo Seco","state":"California","created":"1983-05-16","latSpan":0.1525,"lonSpan":0.2469,"latitude":36.32813090592029,"longitude":-121.30307918228294},{"id":65,"ava_id":"seiad_valley","name":"Seiad Valley","state":"California","created":"1994-06-20","latSpan":0.0487,"lonSpan":0.0751,"latitude":41.843773534228454,"longitude":-123.17650368047669},{"id":66,"ava_id":"cosumnes_river","name":"Cosumnes River","state":"California","created":"2006-08-16","latSpan":0.2017,"lonSpan":0.1747,"latitude":38.337238199153276,"longitude":-121.38938791716001},{"id":67,"ava_id":"adelaida_district","name":"Adelaida District","state":"California","created":"2014-11-10","latSpan":0.1343,"lonSpan":0.2584,"latitude":35.64465728247792,"longitude":-120.81620743320558},{"id":68,"ava_id":"santa_cruz_mountains","name":"Santa Cruz Mountains","state":"California","created":"1982-01-04","latSpan":0.5521,"lonSpan":0.7572,"latitude":37.231596793117795,"longitude":-122.0400927236858},{"id":69,"ava_id":"paso_robles_highlands_district","name":"Paso Robles Highlands District","state":"California","created":"2014-11-10","latSpan":0.1466,"lonSpan":0.231,"latitude":35.51322915,"longitude":-120.31002809999998},{"id":70,"ava_id":"merritt_island","name":"Merritt Island","state":"California","created":"1983-06-16","latSpan":0.0876,"lonSpan":0.0694,"latitude":38.37177795691787,"longitude":-121.54907425484893},{"id":71,"ava_id":"jahant","name":"Jahant","state":"California","created":"2006-08-16","latSpan":0.0677,"lonSpan":0.2487,"latitude":38.22293990578091,"longitude":-121.29471065268487},{"id":72,"ava_id":"gabilan_mountains","name":"Gabilan Mountains","state":"California","created":"2022-09-14","latSpan":0.397,"lonSpan":0.4514,"latitude":36.60699994603119,"longitude":-121.32722533679112},{"id":73,"ava_id":"edna_valley","name":"Edna Valley","state":"California","created":"1982-06-11","latSpan":0.1247,"lonSpan":0.1535,"latitude":35.23178926973241,"longitude":-120.61948367185191},{"id":74,"ava_id":"high_valley","name":"High Valley","state":"California","created":"2005-08-01","latSpan":0.0624,"lonSpan":0.173,"latitude":39.039826134500515,"longitude":-122.67699572771332},{"id":75,"ava_id":"creston_district","name":"Creston District","state":"California","created":"2014-11-10","latSpan":0.149,"lonSpan":0.205,"latitude":35.514852333167966,"longitude":-120.45827693250396},{"id":76,"ava_id":"clements_hills","name":"Clements Hills","state":"California","created":"2006-08-16","latSpan":0.1998,"lonSpan":0.2524,"latitude":38.145369244674725,"longitude":-121.04524838427304},{"id":77,"ava_id":"eagle_peak_mendocino_county","name":"Eagle Peak Mendocino County","state":"California","created":"2014-11-10","latSpan":0.1376,"lonSpan":0.1447,"latitude":39.29160683874168,"longitude":-123.31527463585321},{"id":78,"ava_id":"borden_ranch","name":"Borden Ranch","state":"California","created":"2006-08-16","latSpan":0.1901,"lonSpan":0.2221,"latitude":38.329675445218726,"longitude":-121.1153312455444},{"id":79,"ava_id":"livermore_valley","name":"Livermore Valley","state":"California","created":"1982-10-01","latSpan":0.3614,"lonSpan":0.4539,"latitude":37.70096796957836,"longitude":-121.83766544943377},{"id":80,"ava_id":"spring_mountain_district","name":"Spring Mountain District","state":"California","created":"1993-06-14","latSpan":0.0837,"lonSpan":0.0944,"latitude":38.509067974625275,"longitude":-122.5266318765197},{"id":81,"ava_id":"calistoga","name":"Calistoga","state":"California","created":"2010-01-07","latSpan":0.0828,"lonSpan":0.1492,"latitude":38.59129895279291,"longitude":-122.5721342150692},{"id":82,"ava_id":"tehachapi_mountains","name":"Tehachapi Mountains","state":"California","created":"2020-12-21","latSpan":0.1149,"lonSpan":0.3636,"latitude":35.118703533868384,"longitude":-118.50530860272104},{"id":83,"ava_id":"carmel_valley","name":"Carmel Valley","state":"California","created":"1983-01-13","latSpan":0.1175,"lonSpan":0.1602,"latitude":36.43107696930196,"longitude":-121.6908292446177},{"id":84,"ava_id":"manton_valley","name":"Manton Valley","state":"California","created":"2014-09-02","latSpan":0.0651,"lonSpan":0.1649,"latitude":40.432229072817286,"longitude":-121.81746540630022},{"id":85,"ava_id":"san_francisco_bay","name":"San Francisco Bay","state":"California","created":"1999-03-22","latSpan":1.2839,"lonSpan":1.1571,"latitude":37.567927463229196,"longitude":-121.94236296337729},{"id":86,"ava_id":"south_coast","name":"South Coast","state":"California","created":"1985-12-23","latSpan":1.4127,"lonSpan":1.4997,"latitude":33.240488529673705,"longitude":-117.36528329122284},{"id":87,"ava_id":"diamond_mountain_district","name":"Diamond Mountain District","state":"California","created":"2001-07-31","latSpan":0.0411,"lonSpan":0.1043,"latitude":38.55931951903946,"longitude":-122.57460266222893},{"id":88,"ava_id":"yorkville_highlands","name":"Yorkville Highlands","state":"California","created":"1998-06-08","latSpan":0.1343,"lonSpan":0.2772,"latitude":38.90555715,"longitude":-123.2008623},{"id":89,"ava_id":"mokelumne_river","name":"Mokelumne River","state":"California","created":"2006-08-16","latSpan":0.1991,"lonSpan":0.2983,"latitude":38.15706341848218,"longitude":-121.29846702527001},{"id":90,"ava_id":"hames_valley","name":"Hames Valley","state":"California","created":"1994-04-25","latSpan":0.0779,"lonSpan":0.1266,"latitude":35.883235708088726,"longitude":-120.89428137686932},{"id":91,"ava_id":"santa_maria_valley","name":"Santa Maria Valley","state":"California","created":"1981-09-04","latSpan":0.25,"lonSpan":0.302,"latitude":34.90275515865258,"longitude":-120.28306549970233},{"id":92,"ava_id":"dunnigan_hills","name":"Dunnigan Hills","state":"California","created":"1993-06-14","latSpan":0.2395,"lonSpan":0.2465,"latitude":38.80307425067298,"longitude":-121.93910607412994},{"id":93,"ava_id":"chalone","name":"Chalone","state":"California","created":"1982-07-14","latSpan":0.059,"lonSpan":0.0902,"latitude":36.473496609147816,"longitude":-121.25114438603529},{"id":94,"ava_id":"santa_lucia_highlands","name":"Santa Lucia Highlands","state":"California","created":"1992-06-15","latSpan":0.2094,"lonSpan":0.1999,"latitude":36.41886949782797,"longitude":-121.43085606176129},{"id":95,"ava_id":"paso_robles_estrella_district","name":"Paso Robles Estrella District","state":"California","created":"2014-11-10","latSpan":0.1658,"lonSpan":0.2612,"latitude":35.70799298229687,"longitude":-120.56478362297165},{"id":96,"ava_id":"el_dorado","name":"El Dorado","state":"California","created":"1983-11-14","latSpan":0.5081,"lonSpan":0.5989,"latitude":38.75642210820888,"longitude":-120.7757003991868},{"id":97,"ava_id":"covelo","name":"Covelo","state":"California","created":"2006-03-20","latSpan":0.1441,"lonSpan":0.1535,"latitude":39.79546193992418,"longitude":-123.22774702291841},{"id":98,"ava_id":"capay_valley","name":"Capay Valley","state":"California","created":"2003-02-18","latSpan":0.2625,"lonSpan":0.3863,"latitude":38.793814732488286,"longitude":-122.229656700615},{"id":99,"ava_id":"wild_horse_valley","name":"Wild Horse Valley","state":"California","created":"1988-12-30","latSpan":0.0766,"lonSpan":0.0359,"latitude":38.2962826,"longitude":-122.19884060000001},{"id":100,"ava_id":"northern_sonoma","name":"Northern Sonoma","state":"California","created":"1985-06-17","latSpan":0.5522,"lonSpan":0.5093,"latitude":38.576662538107925,"longitude":-122.87791241923142},{"id":101,"ava_id":"antelope_valley_of_the_california_high_desert","name":"Antelope Valley of the California High Desert","state":"California","created":"2011-06-23","latSpan":0.4728,"lonSpan":0.8568,"latitude":34.737978897435426,"longitude":-118.15939636103144},{"id":102,"ava_id":"california_shenandoah_valley","name":"California Shenandoah Valley","state":"California","created":"1983-01-27","latSpan":0.0868,"lonSpan":0.0981,"latitude":38.52552072257939,"longitude":-120.80007007266852},{"id":103,"ava_id":"san_ysidro_district","name":"San Ysidro District","state":"California","created":"1990-12-17","latSpan":0.0488,"lonSpan":0.0501,"latitude":37.00760167542809,"longitude":-121.49091004124243},{"id":104,"ava_id":"san_lucas","name":"San Lucas","state":"California","created":"1987-03-02","latSpan":0.1412,"lonSpan":0.1812,"latitude":36.072752105718976,"longitude":-120.97732330751504},{"id":105,"ava_id":"west_sonoma_coast","name":"West Sonoma Coast","state":"California","created":"2022-05-23","latSpan":0.4438,"lonSpan":0.7005,"latitude":38.55704622252817,"longitude":-123.18348725833715},{"id":106,"ava_id":"dos_rios","name":"Dos Rios","state":"California","created":"2005-11-14","latSpan":0.1327,"lonSpan":0.1558,"latitude":39.737319656559855,"longitude":-123.34529204636628},{"id":107,"ava_id":"sloughhouse","name":"Sloughhouse","state":"California","created":"2006-08-16","latSpan":0.2623,"lonSpan":0.2736,"latitude":38.44208342052623,"longitude":-121.16383904638064},{"id":108,"ava_id":"napa_valley","name":"Napa Valley","state":"California","created":"1981-02-27","latSpan":0.6133,"lonSpan":0.5854,"latitude":38.4616623,"longitude":-122.35407475},{"id":109,"ava_id":"ramona_valley","name":"Ramona Valley","state":"California","created":"2006-01-06","latSpan":0.1926,"lonSpan":0.2787,"latitude":33.021942418108495,"longitude":-116.84943059069771},{"id":110,"ava_id":"cienega_valley","name":"Cienega Valley","state":"California","created":"1982-09-20","latSpan":0.082,"lonSpan":0.1015,"latitude":36.71736715230263,"longitude":-121.36129845561787},{"id":111,"ava_id":"santa_clara_valley","name":"Santa Clara Valley","state":"California","created":"1989-04-27","latSpan":0.6467,"lonSpan":0.8437,"latitude":37.249363581246705,"longitude":-121.78083595685776},{"id":112,"ava_id":"cole_ranch","name":"Cole Ranch","state":"California","created":"1983-05-16","latSpan":0.0099,"lonSpan":0.0212,"latitude":39.060581107860415,"longitude":-123.22438385266416},{"id":113,"ava_id":"alisos_canyon","name":"Alisos Canyon","state":"California","created":"2020-07-28","latSpan":0.0332,"lonSpan":0.0904,"latitude":34.7505583957026,"longitude":-120.19879655765459},{"id":114,"ava_id":"sierra_foothills","name":"Sierra Foothills","state":"California","created":"1987-12-18","latSpan":2.2734,"lonSpan":1.6282,"latitude":38.318479826583705,"longitude":-120.5373897166687},{"id":115,"ava_id":"paso_robles","name":"Paso Robles","state":"California","created":"1983-11-03","latSpan":0.4764,"lonSpan":0.7512,"latitude":35.55417236335539,"longitude":-120.57054543283952},{"id":116,"ava_id":"templeton_gap_district","name":"Templeton Gap District","state":"California","created":"2014-11-10","latSpan":0.1058,"lonSpan":0.1682,"latitude":35.56244934107726,"longitude":-120.72609069610957},{"id":117,"ava_id":"big_valley_district-lake_county","name":"Big Valley District-Lake County","state":"California","created":"2013-11-01","latSpan":0.0774,"lonSpan":0.1046,"latitude":38.996020261326365,"longitude":-122.85787016407428},{"id":118,"ava_id":"santa_ynez_valley","name":"Santa Ynez Valley","state":"California","created":"1983-05-16","latSpan":0.2513,"lonSpan":0.4727,"latitude":34.64900185967082,"longitude":-120.18561392202622},{"id":119,"ava_id":"salado_creek","name":"Salado Creek","state":"California","created":"2004-08-30","latSpan":0.0628,"lonSpan":0.051,"latitude":37.42656350327658,"longitude":-121.1463593429497},{"id":120,"ava_id":"chiles_valley","name":"Chiles Valley","state":"California","created":"1999-04-19","latSpan":0.0953,"lonSpan":0.1376,"latitude":38.54652494509184,"longitude":-122.34043358510819},{"id":121,"ava_id":"mendocino_ridge","name":"Mendocino Ridge","state":"California","created":"1997-10-27","latSpan":0.2596,"lonSpan":0.352,"latitude":38.9974992,"longitude":-123.5178595},{"id":122,"ava_id":"moon_mountain_district_sonoma_county","name":"Moon Mountain District Sonoma County","state":"California","created":"2013-11-01","latSpan":0.1405,"lonSpan":0.1477,"latitude":38.356793978380736,"longitude":-122.46849317880265},{"id":123,"ava_id":"lodi","name":"Lodi","state":"California","created":"1986-03-17","latSpan":0.6437,"lonSpan":0.5723,"latitude":38.25140343936769,"longitude":-121.21249600167269},{"id":124,"ava_id":"fort_ross-seaview","name":"Fort Ross-Seaview","state":"California","created":"2011-12-14","latSpan":0.1598,"lonSpan":0.1944,"latitude":38.5678416,"longitude":-123.2518211},{"id":125,"ava_id":"north_yuba","name":"North Yuba","state":"California","created":"1985-08-30","latSpan":0.1547,"lonSpan":0.1244,"latitude":39.357309418745444,"longitude":-121.25070515722481},{"id":126,"ava_id":"sta._rita_hills","name":"Sta. Rita Hills","state":"California","created":"2001-07-30","latSpan":0.1238,"lonSpan":0.1981,"latitude":34.63738497462316,"longitude":-120.32711693319125},{"id":127,"ava_id":"mendocino","name":"Mendocino","state":"California","created":"1984-07-16","latSpan":0.5272,"lonSpan":0.6302,"latitude":39.102005110311495,"longitude":-123.31984495321169},{"id":128,"ava_id":"los_olivos_district","name":"Los Olivos District","state":"California","created":"2016-02-22","latSpan":0.1128,"lonSpan":0.1247,"latitude":34.634103718579034,"longitude":-120.09274108901893},{"id":129,"ava_id":"river_junction","name":"River Junction","state":"California","created":"2001-07-09","latSpan":0.025,"lonSpan":0.0426,"latitude":37.675875537362685,"longitude":-121.24275700756914},{"id":130,"ava_id":"madera","name":"Madera","state":"California","created":"1985-01-07","latSpan":0.4134,"lonSpan":0.8533,"latitude":36.969853,"longitude":-120.11801274999999},{"id":131,"ava_id":"lamorinda","name":"Lamorinda","state":"California","created":"2016-03-25","latSpan":0.1347,"lonSpan":0.1607,"latitude":37.870626351671525,"longitude":-122.14159196729412},{"id":132,"ava_id":"red_hills_lake_county","name":"Red Hills Lake County","state":"California","created":"2004-09-10","latSpan":0.1094,"lonSpan":0.2072,"latitude":38.913268696188524,"longitude":-122.71637173768701},{"id":133,"ava_id":"clarksburg","name":"Clarksburg","state":"California","created":"1984-02-22","latSpan":0.3476,"lonSpan":0.2194,"latitude":38.33801857985379,"longitude":-121.5637907578624},{"id":134,"ava_id":"chalk_hill","name":"Chalk Hill","state":"California","created":"1983-11-21","latSpan":0.1069,"lonSpan":0.1721,"latitude":38.56147786209684,"longitude":-122.75977159259415},{"id":135,"ava_id":"kelsey_bench-lake_county","name":"Kelsey Bench-Lake County","state":"California","created":"2013-11-01","latSpan":0.0818,"lonSpan":0.1166,"latitude":38.9448676337184,"longitude":-122.8650082433898},{"id":136,"ava_id":"north_coast","name":"North Coast","state":"California","created":"1983-10-21","latSpan":1.6686,"lonSpan":1.7822,"latitude":38.76176415826421,"longitude":-122.93740291847257},{"id":137,"ava_id":"potter_valley","name":"Potter Valley","state":"California","created":"1983-11-14","latSpan":0.1359,"lonSpan":0.1312,"latitude":39.29754516091086,"longitude":-123.08568506676994},{"id":138,"ava_id":"fountaingrove_district","name":"Fountaingrove District","state":"California","created":"2015-03-20","latSpan":0.1121,"lonSpan":0.1963,"latitude":38.514193754841244,"longitude":-122.62759481756984},{"id":139,"ava_id":"san_juan_creek","name":"San Juan Creek","state":"California","created":"2014-11-10","latSpan":0.2003,"lonSpan":0.2499,"latitude":35.588020456973815,"longitude":-120.319511977937},{"id":140,"ava_id":"paulsell_valley","name":"Paulsell Valley","state":"California","created":"2022-06-03","latSpan":0.1703,"lonSpan":0.143,"latitude":37.73071398590878,"longitude":-120.66329799687126},{"id":141,"ava_id":"paso_robles_geneseo_district","name":"Paso Robles Geneseo District","state":"California","created":"2014-11-10","latSpan":0.0882,"lonSpan":0.1533,"latitude":35.61548519415034,"longitude":-120.58751083950665},{"id":142,"ava_id":"dry_creek_valley","name":"Dry Creek Valley","state":"California","created":"1983-09-06","latSpan":0.205,"lonSpan":0.2568,"latitude":38.647509549205225,"longitude":-122.9852612903125},{"id":143,"ava_id":"san_bernabe","name":"San Bernabe","state":"California","created":"2004-08-30","latSpan":0.124,"lonSpan":0.1469,"latitude":36.141800595019255,"longitude":-121.0999256869553},{"id":144,"ava_id":"benmore_valley","name":"Benmore Valley","state":"California","created":"1991-11-18","latSpan":0.0272,"lonSpan":0.0389,"latitude":39.01023361086976,"longitude":-123.02154143679536},{"id":145,"ava_id":"leona_valley","name":"Leona Valley","state":"California","created":"2008-11-28","latSpan":0.0668,"lonSpan":0.1591,"latitude":34.61879799431223,"longitude":-118.29745365692224},{"id":146,"ava_id":"temecula_valley","name":"Temecula Valley","state":"California","created":"1984-11-23","latSpan":0.1631,"lonSpan":0.3987,"latitude":33.52509147241173,"longitude":-117.17144707284041},{"id":147,"ava_id":"san_antonio_valley","name":"San Antonio Valley","state":"California","created":"2006-07-10","latSpan":0.2881,"lonSpan":0.4751,"latitude":35.93576689014681,"longitude":-121.1065875799249}]},{"id":10,"country":"USA","region":"Colorado","ava":[{"id":0,"ava_id":"grand_valley","name":"Grand Valley","state":"Colorado","created":"1991-12-26","latSpan":0.1458,"lonSpan":0.4213,"latitude":39.09147238494796,"longitude":-108.52767419580755},{"id":1,"ava_id":"colorado","name":"Colorado","state":"Colorado","created":"1991-12-26","latSpan":0.1458,"lonSpan":0.4213,"latitude":39.09147238494796,"longitude":-108.52767419580755},{"id":2,"ava_id":"west_elks","name":"West Elks","state":"Colorado","created":"2001-05-07","latSpan":0.1572,"lonSpan":0.2971,"latitude":38.846569782824595,"longitude":-107.67355331326752}]},{"id":11,"country":"USA","region":"Connecticut","ava":[{"id":0,"ava_id":"connecticut","name":"Connecticut","state":"Connecticut","created":"1991-12-26","latSpan":0.684,"lonSpan":0.9169,"latitude":41.69229332913997,"longitude":-72.26294700978352},{"id":1,"ava_id":"southeastern_new_england","name":"Southeastern New England","state":"Connecticut|Rhode Island|Massachusetts","created":"1983-07-29","latSpan":1.0802,"lonSpan":2.4128,"latitude":41.78173090270366,"longitude":-71.69984552013379},{"id":2,"ava_id":"eastern_connecticut_highlands","name":"Eastern Connecticut Highlands","state":"Connecticut","created":"2019-10-11","latSpan":0.684,"lonSpan":0.9169,"latitude":41.69229332913997,"longitude":-72.26294700978352},{"id":3,"ava_id":"western_connecticut_highlands","name":"Western Connecticut Highlands","state":"Connecticut","created":"1988-03-10","latSpan":1.0145,"lonSpan":0.863,"latitude":41.54409845,"longitude":-73.29627205}]},{"id":12,"country":"USA","region":"Georgia","ava":[{"id":0,"ava_id":"georgia","name":"Georgia","state":"Georgia","created":"2014-08-18","latSpan":0.2309,"lonSpan":0.3738,"latitude":34.58620826709925,"longitude":-83.98760943370962},{"id":1,"ava_id":"upper_hiwassee_highlands","name":"Upper Hiwassee Highlands","state":"Georgia|North Carolina","created":"2014-08-18","latSpan":0.5036,"lonSpan":0.6522,"latitude":34.987742200002906,"longitude":-83.9302267831142},{"id":2,"ava_id":"dahlonega_plateau","name":"Dahlonega Plateau","state":"Georgia","created":"2018-06-29","latSpan":0.2309,"lonSpan":0.3738,"latitude":34.58620826709925,"longitude":-83.98760943370962}]},{"id":13,"country":"USA","region":"Hawaii","ava":[{"id":0,"ava_id":"ulupalakua","name":"Ulupalakua","state":"Hawaii","created":"2021-08-02","latSpan":0.0042,"lonSpan":0.0086,"latitude":20.677750719258455,"longitude":-156.40231669022342},{"id":1,"ava_id":"hawaii","name":"Hawaii","state":"Hawaii","created":"2021-08-02","latSpan":0.0042,"lonSpan":0.0086,"latitude":20.677750719258455,"longitude":-156.40231669022342}]},{"id":14,"country":"USA","region":"Idaho","ava":[{"id":0,"ava_id":"idaho","name":"Idaho","state":"Idaho","created":"2015-11-25","latSpan":0.1523,"lonSpan":0.242,"latitude":43.793550835867016,"longitude":-116.39180839912834},{"id":1,"ava_id":"snake_river_valley","name":"Snake River Valley","state":"Idaho|Oregon","created":"2007-04-09","latSpan":2.4725,"lonSpan":3.6557,"latitude":43.76354173717782,"longitude":-116.18684964274775},{"id":2,"ava_id":"lewis-clark_valley","name":"Lewis-Clark Valley","state":"Idaho|Washington","created":"2016-05-20","latSpan":0.6894,"lonSpan":1.3819,"latitude":46.37929719826611,"longitude":-116.72542907597258},{"id":3,"ava_id":"eagle_foothills","name":"Eagle Foothills","state":"Idaho","created":"2015-11-25","latSpan":0.1523,"lonSpan":0.242,"latitude":43.793550835867016,"longitude":-116.39180839912834}]},{"id":15,"country":"USA","region":"Iowa","ava":[{"id":0,"ava_id":"upper_mississippi_river_valley","name":"Upper Mississippi River Valley","state":"Illinois|Iowa|Minnesota|Wisconsin","created":"2009-07-22","latSpan":3.436,"lonSpan":4.078,"latitude":43.252158680973054,"longitude":-90.99967188169731},{"id":1,"ava_id":"loess_hills_district","name":"Loess Hills District","state":"Iowa|Missouri","created":"2016-03-03","latSpan":2.963,"lonSpan":1.9532,"latitude":41.65554400030541,"longitude":-95.66286884686977},{"id":2,"ava_id":"iowa","name":"Iowa","state":"Iowa","created":"2009-07-22","latSpan":2.963,"lonSpan":1.9532,"latitude":41.65554400030541,"longitude":-95.66286884686977}]},{"id":16,"country":"USA","region":"Oregon","ava":[{"id":0,"ava_id":"elkton_oregon","name":"Elkton Oregon","state":"Oregon","created":"2013-03-07","latSpan":0.2142,"lonSpan":0.2563,"latitude":43.626134349999994,"longitude":-123.57749620000001},{"id":1,"ava_id":"lower_long_tom","name":"Lower Long Tom","state":"Oregon","created":"2021-12-10","latSpan":0.1586,"lonSpan":0.1549,"latitude":44.22750682495888,"longitude":-123.35858529458307},{"id":2,"ava_id":"rogue_valley","name":"Rogue Valley","state":"Oregon","created":"1991-02-22","latSpan":0.7406,"lonSpan":1.2558,"latitude":42.370415,"longitude":-123.149858},{"id":3,"ava_id":"ribbon_ridge","name":"Ribbon Ridge","state":"Oregon","created":"2005-06-01","latSpan":0.0512,"lonSpan":0.045,"latitude":45.356072,"longitude":-123.0792015},{"id":4,"ava_id":"columbia_gorge","name":"Columbia Gorge","state":"Oregon|Washington","created":"2004-05-10","latSpan":0.3655,"lonSpan":0.418,"latitude":45.68728685185849,"longitude":-121.46182013808053},{"id":5,"ava_id":"snake_river_valley","name":"Snake River Valley","state":"Idaho|Oregon","created":"2007-04-09","latSpan":2.4725,"lonSpan":3.6557,"latitude":43.76354173717782,"longitude":-116.18684964274775},{"id":6,"ava_id":"dundee_hills","name":"Dundee Hills","state":"Oregon","created":"2005-01-31","latSpan":0.0858,"lonSpan":0.1174,"latitude":45.2793165,"longitude":-123.0594515},{"id":7,"ava_id":"van_duzer_corridor","name":"Van Duzer Corridor","state":"Oregon","created":"2018-12-14","latSpan":0.1535,"lonSpan":0.2545,"latitude":45.00970958169712,"longitude":-123.2863869617226},{"id":8,"ava_id":"laurelwood_district","name":"Laurelwood District","state":"Oregon","created":"2020-07-06","latSpan":0.195,"lonSpan":0.2497,"latitude":45.399211983943616,"longitude":-122.97123583857717},{"id":9,"ava_id":"chehalem_mountains","name":"Chehalem Mountains","state":"Oregon","created":"2006-11-24","latSpan":0.2378,"lonSpan":0.3228,"latitude":45.377720999999994,"longitude":-122.961154},{"id":10,"ava_id":"umpqua_valley","name":"Umpqua Valley","state":"Oregon","created":"1984-03-16","latSpan":0.8838,"lonSpan":0.8606,"latitude":43.33729601151617,"longitude":-123.39819021548122},{"id":11,"ava_id":"yamhill-carlton","name":"Yamhill-Carlton","state":"Oregon","created":"2004-11-18","latSpan":0.1837,"lonSpan":0.2117,"latitude":45.34625566592583,"longitude":-123.18704758917622},{"id":12,"ava_id":"the_rocks_district_of_milton-freewater","name":"The Rocks District of Milton-Freewater","state":"Oregon","created":"2015-03-11","latSpan":0.0337,"lonSpan":0.0702,"latitude":45.95610998323523,"longitude":-118.4066429135181},{"id":13,"ava_id":"applegate_valley","name":"Applegate Valley","state":"Oregon","created":"2000-12-14","latSpan":0.3329,"lonSpan":0.7636,"latitude":42.26504875130216,"longitude":-123.2000025},{"id":14,"ava_id":"columbia_valley","name":"Columbia Valley","state":"Oregon|Washington","created":"1984-12-13","latSpan":3.0737,"lonSpan":4.2583,"latitude":46.75525021584244,"longitude":-119.16793618548897},{"id":15,"ava_id":"willamette_valley","name":"Willamette Valley","state":"Oregon","created":"1984-01-03","latSpan":2.191,"lonSpan":1.6041,"latitude":44.67165328688132,"longitude":-122.92984694458882},{"id":16,"ava_id":"mount_pisgah,_polk_county,_oregon","name":"Mount Pisgah, Polk County, Oregon","state":"Oregon","created":"2022-06-03","latSpan":0.057,"lonSpan":0.075,"latitude":44.88044690630427,"longitude":-123.29078911115835},{"id":17,"ava_id":"eola-amity_hills","name":"Eola-Amity Hills","state":"Oregon","created":"2006-08-16","latSpan":0.2338,"lonSpan":0.133,"latitude":45.0476495,"longitude":-123.142266},{"id":18,"ava_id":"walla_walla_valley","name":"Walla Walla Valley","state":"Oregon|Washington","created":"1984-01-12","latSpan":0.3805,"lonSpan":0.6564,"latitude":46.018315102830826,"longitude":-118.42614615489103},{"id":19,"ava_id":"mcminnville","name":"McMinnville","state":"Oregon","created":"2005-03-21","latSpan":0.1417,"lonSpan":0.2458,"latitude":45.16027897106339,"longitude":-123.34262503689646},{"id":20,"ava_id":"tualatin_hills","name":"Tualatin Hills","state":"Oregon","created":"2020-07-06","latSpan":0.3337,"lonSpan":0.5186,"latitude":45.60031215931319,"longitude":-123.12190885538456},{"id":21,"ava_id":"southern_oregon","name":"Southern Oregon","state":"Oregon","created":"2004-12-08","latSpan":1.7796,"lonSpan":1.3067,"latitude":42.889602129142304,"longitude":-123.17515043403992},{"id":22,"ava_id":"red_hill_douglas_county,_oregon","name":"Red Hill Douglas County, Oregon","state":"Oregon","created":"2005-11-14","latSpan":0.1148,"lonSpan":0.0911,"latitude":43.54428386829411,"longitude":-123.27016508019904}]},{"id":17,"country":"USA","region":"Washington","ava":[{"id":0,"ava_id":"rattlesnake_hills","name":"Rattlesnake Hills","state":"Washington","created":"2006-03-20","latSpan":0.1592,"lonSpan":0.4695,"latitude":46.4455804118455,"longitude":-120.23589728812266},{"id":1,"ava_id":"white_bluffs","name":"White Bluffs","state":"Washington","created":"2021-07-19","latSpan":0.3269,"lonSpan":0.2737,"latitude":46.52418320288113,"longitude":-119.18848609053047},{"id":2,"ava_id":"wahluke_slope","name":"Wahluke Slope","state":"Washington","created":"2006-01-06","latSpan":0.1656,"lonSpan":0.4314,"latitude":46.71044819465085,"longitude":-119.75343084207326},{"id":3,"ava_id":"columbia_gorge","name":"Columbia Gorge","state":"Oregon|Washington","created":"2004-05-10","latSpan":0.3655,"lonSpan":0.418,"latitude":45.68728685185849,"longitude":-121.46182013808053},{"id":4,"ava_id":"candy_mountain","name":"Candy Mountain","state":"Washington","created":"2020-10-26","latSpan":0.0208,"lonSpan":0.0464,"latitude":46.25521860165122,"longitude":-119.36554514705476},{"id":5,"ava_id":"puget_sound","name":"Puget Sound","state":"Washington","created":"1995-10-04","latSpan":2.2417,"lonSpan":1.6944,"latitude":47.88168869303773,"longitude":-122.72989590766028},{"id":6,"ava_id":"goose_gap","name":"Goose Gap","state":"Washington","created":"2021-08-02","latSpan":0.0573,"lonSpan":0.1213,"latitude":46.24286270360111,"longitude":-119.4053049411274},{"id":7,"ava_id":"lewis-clark_valley","name":"Lewis-Clark Valley","state":"Idaho|Washington","created":"2016-05-20","latSpan":0.6894,"lonSpan":1.3819,"latitude":46.37929719826611,"longitude":-116.72542907597258},{"id":8,"ava_id":"snipes_mountain","name":"Snipes Mountain","state":"Washington","created":"2009-02-20","latSpan":0.0412,"lonSpan":0.1565,"latitude":46.31941474999999,"longitude":-120.1076463},{"id":9,"ava_id":"red_mountain","name":"Red Mountain","state":"Washington","created":"2001-06-11","latSpan":0.0552,"lonSpan":0.0627,"latitude":46.28345379348376,"longitude":-119.44061830582368},{"id":10,"ava_id":"columbia_valley","name":"Columbia Valley","state":"Oregon|Washington","created":"1984-12-13","latSpan":3.0737,"lonSpan":4.2583,"latitude":46.75525021584244,"longitude":-119.16793618548897},{"id":11,"ava_id":"naches_heights","name":"Naches Heights","state":"Washington","created":"2012-01-13","latSpan":0.1265,"lonSpan":0.1901,"latitude":46.68114734815502,"longitude":-120.67755787845576},{"id":12,"ava_id":"washington","name":"Washington","state":"Washington","created":"2002-03-25","latSpan":0.5075,"lonSpan":0.4204,"latitude":48.157794,"longitude":-122.559821},{"id":13,"ava_id":"the_burn_of_columbia_valley","name":"The Burn of Columbia Valley","state":"Washington","created":"2021-07-19","latSpan":0.0706,"lonSpan":0.1824,"latitude":45.73785456030308,"longitude":-120.37322437986924},{"id":14,"ava_id":"ancient_lakes_of_columbia_valley","name":"Ancient Lakes of Columbia Valley","state":"Washington","created":"2012-11-19","latSpan":0.307,"lonSpan":0.349,"latitude":47.125257250000004,"longitude":-119.92081569999999},{"id":15,"ava_id":"walla_walla_valley","name":"Walla Walla Valley","state":"Oregon|Washington","created":"1984-01-12","latSpan":0.3805,"lonSpan":0.6564,"latitude":46.018315102830826,"longitude":-118.42614615489103},{"id":16,"ava_id":"horse_heaven_hills","name":"Horse Heaven Hills","state":"Washington","created":"2005-08-01","latSpan":0.4636,"lonSpan":1.2036,"latitude":46.0213101896239,"longitude":-119.59835653038726},{"id":17,"ava_id":"lake_chelan","name":"Lake Chelan","state":"Washington","created":"2009-05-29","latSpan":0.1217,"lonSpan":0.2643,"latitude":47.876103,"longitude":-120.1046925},{"id":18,"ava_id":"royal_slope","name":"Royal Slope","state":"Washington","created":"2020-10-02","latSpan":0.1682,"lonSpan":0.69,"latitude":46.913277122138794,"longitude":-119.63488453537786},{"id":19,"ava_id":"rocky_reach","name":"Rocky Reach","state":"Washington","created":"2022-06-03","latSpan":0.3202,"lonSpan":0.3177,"latitude":47.63888535969761,"longitude":-120.16598706953134},{"id":20,"ava_id":"yakima_valley","name":"Yakima Valley","state":"Washington","created":"1983-05-04","latSpan":0.3812,"lonSpan":1.5429,"latitude":46.33983392142586,"longitude":-120.09041834829462}]}]}
