{"WineRegionsTOC":[{"id":0,"country":"USA","regions":[{"id":0,"region":"Missouri","ava":[{"id":0,"ava_id":"augusta","name":"Augusta","state":"Missouri","created":"1980-06-20","latitude":38.56966230822778,"longitude":-90.90554848528203,"latSpan":0.07080410436406481,"lonSpan":0.1178659129669768},{"id":1,"ava_id":"ozark_mountain","name":"Ozark Mountain","state":"Arkansas|Missouri|Oklahoma","created":"1986-08-01","latitude":36.97159901586202,"longitude":-92.40911831077271,"latSpan":3.838905658914797,"lonSpan":5.802979872543688},{"id":2,"ava_id":"hermann","name":"Hermann","state":"Missouri","created":"1983-08-18","latitude":38.653088958145446,"longitude":-91.43612433658757,"latSpan":0.109389300594529,"lonSpan":0.28246736735967204},{"id":3,"ava_id":"loess_hills_district","name":"Loess Hills District","state":"Iowa|Missouri","created":"2016-03-03","latitude":41.65554400030541,"longitude":-95.66286884686977,"latSpan":2.963015999888455,"lonSpan":1.953231694587032},{"id":4,"ava_id":"missouri","name":"Missouri","state":"Missouri","created":"1986-08-01","latitude":39.0656017747984,"longitude":-92.99251188097485,"latSpan":8.084905813845019,"lonSpan":7.131856319662418},{"id":5,"ava_id":"ozark_highlands","name":"Ozark Highlands","state":"Missouri","created":"1987-01-30","latitude":37.72352527956318,"longitude":-91.57253451382324,"latSpan":1.3686812618196171,"lonSpan":1.0186058065985435}]},{"id":1,"region":"New_York","ava":[{"id":0,"ava_id":"the_hamptons,_long_island","name":"The Hamptons, Long Island","state":"New York","created":"1985-05-16","latitude":40.96120444955898,"longitude":-72.17813728556953,"latSpan":0.24742824100729166,"lonSpan":0.6448892347374766},{"id":1,"ava_id":"champlain_valley_of_new_york","name":"Champlain Valley of New York","state":"New York","created":"2016-08-22","latitude":44.42950899313038,"longitude":-73.53825541687586,"latSpan":1.162418155956999,"lonSpan":0.43626007639974773},{"id":2,"ava_id":"niagara_escarpment","name":"Niagara Escarpment","state":"New York","created":"2005-02-09","latitude":43.2009463050124,"longitude":-78.77793325857638,"latSpan":0.086448119340929,"lonSpan":0.5410700007237068},{"id":3,"ava_id":"cayuga_lake","name":"Cayuga Lake","state":"New York","created":"1988-04-25","latitude":42.701155,"longitude":-76.6586745,"latSpan":0.5241319999999945,"lonSpan":0.3240069999999946},{"id":4,"ava_id":"hudson_river_region","name":"Hudson River Region","state":"New York","created":"1982-07-06","latitude":41.76255119725545,"longitude":-74.02504950102585,"latSpan":1.494649986542818,"lonSpan":1.3440750614348218},{"id":5,"ava_id":"seneca_lake","name":"Seneca Lake","state":"New York","created":"2003-09-02","latitude":42.661705106021046,"longitude":-76.96337071784356,"latSpan":0.6015604317651153,"lonSpan":0.2882373139347294},{"id":6,"ava_id":"upper_hudson","name":"Upper Hudson","state":"New York","created":"2019-01-07","latitude":42.94663945,"longitude":-73.85613430000001,"latSpan":0.7456535000000031,"lonSpan":1.031733200000005},{"id":7,"ava_id":"new_york","name":"New York","state":"New York","created":"1982-07-06|1982-09-01|1983-11-21|1985-05-16|1986-10-10|1988-04-25|2001-05-15|2003-09-02|2005-02-09|2016-08-22|2019-01-07","latitude":42.3624790180363,"longitude":-75.44300508254038,"latSpan":4.41806901525117,"lonSpan":11.89305339353973},{"id":8,"ava_id":"lake_erie","name":"Lake Erie","state":"New York|Ohio|Pennsylvania","created":"1983-11-21","latitude":42.027378865942836,"longitude":-81.1973781099208,"latSpan":1.7008172016765926,"lonSpan":5.10273590363947},{"id":9,"ava_id":"finger_lakes","name":"Finger Lakes","state":"New York","created":"1982-09-01","latitude":42.694919476711135,"longitude":-76.97216127300477,"latSpan":0.8461798323899217,"lonSpan":1.7261596244808857},{"id":10,"ava_id":"long_island","name":"Long Island","state":"New York","created":"2001-05-15","latitude":40.87668340667916,"longitude":-72.99899151534983,"latSpan":0.5680687016429005,"lonSpan":1.5358816787850174},{"id":11,"ava_id":"north_fork_of_long_island","name":"North Fork of Long Island","state":"New York","created":"1986-10-10","latitude":41.01831475435396,"longitude":-72.54763025787858,"latSpan":0.28480600629330866,"lonSpan":0.6331591638425209}]},{"id":2,"region":"Illinois","ava":[{"id":0,"ava_id":"illinois","name":"Illinois","state":"Illinois|Iowa|Wisconsin","created":"2006-12-27","latitude":40.38154415018458,"longitude":-89.97311739471257,"latSpan":7.90506109746444,"lonSpan":4.968661045965334},{"id":1,"ava_id":"upper_mississippi_river_valley","name":"Upper Mississippi River Valley","state":"IL|IA|MN|WI","created":"2009-07-22","latitude":43.252158680973054,"longitude":-90.99967188169731,"latSpan":3.4359549095294497,"lonSpan":4.07795015036244},{"id":2,"ava_id":"shawnee_hills","name":"Shawnee Hills","state":"Illinois","created":"2006-12-27","latitude":37.51092961939611,"longitude":-88.94656290772784,"latSpan":0.8917091622455544,"lonSpan":1.7531539936292688}]},{"id":3,"region":"Virginia","ava":[{"id":0,"ava_id":"middleburg_virginia","name":"Middleburg Virginia","state":"Virginia","created":"2012-09-13","latitude":39.090326739837224,"longitude":-77.79494697724513,"latSpan":0.4650934801799167,"lonSpan":0.4877960463025346},{"id":1,"ava_id":"rocky_knob","name":"Rocky Knob","state":"Virginia","created":"1983-02-11","latitude":36.816282400000006,"longitude":-80.34705364999999,"latSpan":0.0850617999999983,"lonSpan":0.14851470000000688},{"id":2,"ava_id":"virginia_peninsula","name":"Virginia Peninsula","state":"Virginia","created":"2021-09-24","latitude":37.27847447273945,"longitude":-76.77127728837561,"latSpan":0.6963259055860647,"lonSpan":1.0013477592760296},{"id":3,"ava_id":"monticello","name":"Monticello","state":"Virginia","created":"1984-01-23","latitude":38.00445408497348,"longitude":-78.43212194912192,"latSpan":0.769841030210344,"lonSpan":1.1730794657375156},{"id":4,"ava_id":"appalachian_high_country","name":"Appalachian High Country","state":"North Carolina|Tennessee|Virginia","created":"2016-10-27","latitude":36.31460116651067,"longitude":-81.6272266531937,"latSpan":0.9835463327970047,"lonSpan":1.5787001213010257},{"id":5,"ava_id":"virginia","name":"Virginia","state":"Virginia","created":"1982-07-30|1983-02-11|1983-05-16|1984-01-23|1987-04-21|1990-12-10|2012-09-13|2016-10-27|2021-09-24","latitude":37.757991411656164,"longitude":-78.2746453614075,"latSpan":3.797531018345822,"lonSpan":7.045050828349744},{"id":6,"ava_id":"north_fork_of_roanoke","name":"North Fork of Roanoke","state":"Virginia","created":"1983-05-16","latitude":37.23579805,"longitude":-80.31732310000001,"latSpan":0.2120895000000047,"lonSpan":0.21248060000000635},{"id":7,"ava_id":"shenandoah_valley","name":"Shenandoah Valley","state":"Virginia|West Virginia","created":"1982-07-30","latitude":38.56972141542424,"longitude":-78.76437173316114,"latSpan":2.1012752060674913,"lonSpan":2.086803504515416},{"id":8,"ava_id":"northern_neck_george_washington_birthplace","name":"Northern Neck George Washington Birthplace","state":"Virginia","created":"1987-04-21","latitude":38.00434877062446,"longitude":-76.79164584999047,"latSpan":0.7916314412489172,"lonSpan":1.1111735807310765},{"id":9,"ava_id":"virginia\u2019s_eastern_shore","name":"Virginia\u2019s Eastern Shore","state":"Virginia","created":"1990-12-10","latitude":37.56620659313977,"longitude":-75.69824934017197,"latSpan":0.8986503507146324,"lonSpan":0.6534469093549689}]},{"id":4,"region":"Washington","ava":[{"id":0,"ava_id":"rattlesnake_hills","name":"Rattlesnake Hills","state":"Washington","created":"2006-03-20","latitude":46.4455804118455,"longitude":-120.23589728812266,"latSpan":0.15924022369100754,"lonSpan":0.46950217624531376},{"id":1,"ava_id":"white_bluffs","name":"White Bluffs","state":"Washington","created":"2021-07-19","latitude":46.52418320288113,"longitude":-119.18848609053047,"latSpan":0.3268870887535371,"lonSpan":0.2736835293256945},{"id":2,"ava_id":"wahluke_slope","name":"Wahluke Slope","state":"Washington","created":"2006-01-06","latitude":46.71044819465085,"longitude":-119.75343084207326,"latSpan":0.1656453837854528,"lonSpan":0.43138818574399806},{"id":3,"ava_id":"columbia_gorge","name":"Columbia Gorge","state":"Oregon|Washington","created":"2004-05-10","latitude":45.68728685185849,"longitude":-121.46182013808053,"latSpan":0.36553956708385726,"lonSpan":0.4180243909988377},{"id":4,"ava_id":"candy_mountain","name":"Candy Mountain","state":"Washington","created":"2020-10-26","latitude":46.25521860165122,"longitude":-119.36554514705476,"latSpan":0.020825225193554786,"lonSpan":0.04638426123133854},{"id":5,"ava_id":"puget_sound","name":"Puget Sound","state":"Washington","created":"1995-10-04","latitude":47.88168869303773,"longitude":-122.72989590766028,"latSpan":2.2417233466662765,"lonSpan":1.6944175845911928},{"id":6,"ava_id":"goose_gap","name":"Goose Gap","state":"Washington","created":"2021-08-02","latitude":46.24286270360111,"longitude":-119.4053049411274,"latSpan":0.05728428836299315,"lonSpan":0.12130760822930142},{"id":7,"ava_id":"lewis-clark_valley","name":"Lewis-Clark Valley","state":"Idaho|Washington","created":"2016-05-20","latitude":46.37929719826611,"longitude":-116.72542907597258,"latSpan":0.6893595888363961,"lonSpan":1.3818628343921375},{"id":8,"ava_id":"snipes_mountain","name":"Snipes Mountain","state":"Washington","created":"2009-02-20","latitude":46.31941474999999,"longitude":-120.1076463,"latSpan":0.04117869999998902,"lonSpan":0.15646999999999878},{"id":9,"ava_id":"red_mountain","name":"Red Mountain","state":"Washington","created":"2001-06-11","latitude":46.28345379348376,"longitude":-119.44061830582368,"latSpan":0.055223999930355205,"lonSpan":0.06268868272987049},{"id":10,"ava_id":"columbia_valley","name":"Columbia Valley","state":"Oregon|Washington","created":"1984-12-13","latitude":46.75525021584244,"longitude":-119.16793618548897,"latSpan":3.0737314344187894,"lonSpan":4.258324063463448},{"id":11,"ava_id":"naches_heights","name":"Naches Heights","state":"Washington","created":"2012-01-13","latitude":46.68114734815502,"longitude":-120.67755787845576,"latSpan":0.1265289374728198,"lonSpan":0.19013335244311236},{"id":12,"ava_id":"washington","name":"Washington","state":"Washington","created":"2002-03-25","latitude":47.318469454440084,"longitude":-120.94891604657462,"latSpan":3.7841658677378263,"lonSpan":6.5383305461986225},{"id":13,"ava_id":"the_burn_of_columbia_valley","name":"The Burn of Columbia Valley","state":"Washington","created":"2021-07-19","latitude":45.73785456030308,"longitude":-120.37322437986924,"latSpan":0.07059664070589378,"lonSpan":0.18240376941365355},{"id":14,"ava_id":"ancient_lakes_of_columbia_valley","name":"Ancient Lakes of Columbia Valley","state":"Washington","created":"2012-11-19","latitude":47.125257250000004,"longitude":-119.92081569999999,"latSpan":0.3070236999999949,"lonSpan":0.348973799999996},{"id":15,"ava_id":"walla_walla_valley","name":"Walla Walla Valley","state":"Oregon|Washington","created":"1984-01-12","latitude":46.018315102830826,"longitude":-118.42614615489103,"latSpan":0.38050534283310355,"lonSpan":0.6563578710517675},{"id":16,"ava_id":"horse_heaven_hills","name":"Horse Heaven Hills","state":"Washington","created":"2005-08-01","latitude":46.0213101896239,"longitude":-119.59835653038726,"latSpan":0.4636393036907265,"lonSpan":1.2035628765064388},{"id":17,"ava_id":"lake_chelan","name":"Lake Chelan","state":"Washington","created":"2009-05-29","latitude":47.876103,"longitude":-120.1046925,"latSpan":0.12171200000000226,"lonSpan":0.26433099999999854},{"id":18,"ava_id":"royal_slope","name":"Royal Slope","state":"Washington","created":"2020-10-02","latitude":46.913277122138794,"longitude":-119.63488453537786,"latSpan":0.16822378539004745,"lonSpan":0.6900149013016375},{"id":19,"ava_id":"rocky_reach","name":"Rocky Reach","state":"Washington","created":"2022-06-03","latitude":47.63888535969761,"longitude":-120.16598706953134,"latSpan":0.320152181572098,"lonSpan":0.31774941787631406},{"id":20,"ava_id":"yakima_valley","name":"Yakima Valley","state":"Washington","created":"1983-05-04","latitude":46.33983392142586,"longitude":-120.09041834829462,"latSpan":0.38121777737269724,"lonSpan":1.5428596778222072}]},{"id":5,"region":"Georgia","ava":[{"id":0,"ava_id":"georgia","name":"Georgia","state":"Georgia","created":"2014-08-18","latitude":34.786975233551075,"longitude":-83.95891810841191,"latSpan":0.7687954908756822,"lonSpan":0.6521692259518233},{"id":1,"ava_id":"upper_hiwassee_highlands","name":"Upper Hiwassee Highlands","state":"Georgia|North Carolina","created":"2014-08-18","latitude":34.987742200002906,"longitude":-83.9302267831142,"latSpan":0.5035779099718383,"lonSpan":0.6521692259518233},{"id":2,"ava_id":"dahlonega_plateau","name":"Dahlonega Plateau","state":"Georgia","created":"2018-06-29","latitude":34.58620826709925,"longitude":-83.98760943370962,"latSpan":0.23094520597221901,"lonSpan":0.3738057923345224}]},{"id":6,"region":"Connecticut","ava":[{"id":0,"ava_id":"connecticut","name":"Connecticut","state":"Connecticut","created":"1991-12-26","latitude":41.67270756061455,"longitude":-72.41968819330577,"latSpan":1.2849970185705217,"lonSpan":3.234305564288448},{"id":1,"ava_id":"southeastern_new_england","name":"Southeastern New England","state":"Connecticut|Rhode Island|Massachusetts","created":"1983-07-29","latitude":41.78173090270366,"longitude":-71.69984552013379,"latSpan":1.080204231733724,"lonSpan":2.4127521688444915},{"id":2,"ava_id":"eastern_connecticut_highlands","name":"Eastern Connecticut Highlands","state":"Connecticut","created":"2019-10-11","latitude":41.69229332913997,"longitude":-72.26294700978352,"latSpan":0.6840118054380824,"lonSpan":0.9169347943433053},{"id":3,"ava_id":"western_connecticut_highlands","name":"Western Connecticut Highlands","state":"Connecticut","created":"1988-03-10","latitude":41.54409845,"longitude":-73.29627205,"latSpan":1.0145248999999978,"lonSpan":0.8630058999999903}]},{"id":7,"region":"Colorado","ava":[{"id":0,"ava_id":"grand_valley","name":"Grand Valley","state":"Colorado","created":"1991-12-26","latitude":39.09147238494796,"longitude":-108.52767419580755,"latSpan":0.14577924410186682,"lonSpan":0.4213237899147799},{"id":1,"ava_id":"colorado","name":"Colorado","state":"Colorado","created":"1991-12-26","latitude":38.969021083886275,"longitude":-108.10061375453753,"latSpan":0.39640431910597584,"lonSpan":1.213355546069792},{"id":2,"ava_id":"west_elks","name":"West Elks","state":"Colorado","created":"2001-05-07","latitude":38.846569782824595,"longitude":-107.67355331326752,"latSpan":0.1572241898633422,"lonSpan":0.29714553714472913}]},{"id":8,"region":"Ohio","ava":[{"id":0,"ava_id":"grand_river_valley","name":"Grand River Valley","state":"Ohio","created":"1983-11-21","latitude":41.72234967438639,"longitude":-81.08572186838968,"latSpan":0.12991946623044726,"lonSpan":0.46705223739309076},{"id":1,"ava_id":"isle_st._george","name":"Isle St. George","state":"Ohio","created":"1982-08-20","latitude":41.715505847229494,"longitude":-82.82078853117537,"latSpan":0.01815472895652448,"lonSpan":0.02999751828927799},{"id":2,"ava_id":"ohio","name":"Ohio","state":"Ohio","created":"1982-08-20|1982-12-27|1983-10-07|1983-11-21","latitude":40.43962326464374,"longitude":-82.73944348938724,"latSpan":5.268237532139601,"lonSpan":9.447674427584815},{"id":3,"ava_id":"lake_erie","name":"Lake Erie","state":"New York|Ohio|Pennsylvania","created":"1983-11-21","latitude":42.027378865942836,"longitude":-81.1973781099208,"latSpan":1.7008172016765926,"lonSpan":5.10273590363947},{"id":4,"ava_id":"ohio_river_valley","name":"Ohio River Valley","state":"Indiana|Kentucky|Ohio|West Virginia","created":"1983-10-07","latitude":38.85186766334464,"longitude":-84.28150886885368,"latSpan":2.4846354574062133,"lonSpan":7.624351433664415},{"id":5,"ava_id":"loramie_creek","name":"Loramie Creek","state":"Ohio","created":"1982-12-27","latitude":40.27474340420434,"longitude":-84.33198656258756,"latSpan":0.0342026574105887,"lonSpan":0.07961488536309957}]},{"id":9,"region":"Mississippi","ava":[{"id":0,"ava_id":"mississippi_delta","name":"Mississippi Delta","state":"Mississippi|Louisiana|Tennessee","created":"1984-07-07","latitude":33.72114024575009,"longitude":-90.582786120863,"latSpan":2.557479183849992,"lonSpan":1.165367009401237},{"id":1,"ava_id":"mississippi","name":"Mississippi","state":"Mississippi|Lousiana|Tennessee","created":"1984-07-07","latitude":33.72114024575009,"longitude":-90.582786120863,"latSpan":2.557479183849992,"lonSpan":1.165367009401237}]},{"id":10,"region":"Indiana","ava":[{"id":0,"ava_id":"indiana_uplands","name":"Indiana Uplands","state":"IN","created":"2013-02-05","latitude":38.62122454214793,"longitude":-86.37172698741352,"latSpan":1.5576422068466442,"lonSpan":1.180485150952677},{"id":1,"ava_id":"ohio_river_valley","name":"Ohio River Valley","state":"IN|KY|OH|WV","created":"1983-10-07","latitude":38.85186766334464,"longitude":-84.28150886885368,"latSpan":2.4846354574062133,"lonSpan":7.624351433664415},{"id":2,"ava_id":"indiana","name":"Indiana","state":"Indiana","created":"2013-02-05","latitude":38.73654610274629,"longitude":-85.3266179281336,"latSpan":2.4846354574062133,"lonSpan":7.624351433664415}]},{"id":11,"region":"Arkansas","ava":[{"id":0,"ava_id":"altus","name":"Altus","state":"Arkansas","created":"1984-05-30","latitude":35.47136743115614,"longitude":-93.71484616854032,"latSpan":0.13267373458349851,"lonSpan":0.22373548111232822},{"id":1,"ava_id":"ozark_mountain","name":"Ozark Mountain","state":"Arkansas|Missouri|Oklahoma","created":"1986-08-01","latitude":36.97159901586202,"longitude":-92.40911831077271,"latSpan":3.838905658914797,"lonSpan":5.802979872543688},{"id":2,"ava_id":"arkansas","name":"Arkansas","state":"Arkansas","created":"1986-08-01|1986-09-26","latitude":36.21500008927167,"longitude":-92.87794919719195,"latSpan":3.838905658914797,"lonSpan":5.802979872543688},{"id":3,"ava_id":"arkansas_mountain","name":"Arkansas Mountain","state":"Arkansas","created":"1986-09-26","latitude":35.45840116268131,"longitude":-93.34678008361118,"latSpan":0.812509952553377,"lonSpan":1.9151923691239716}]},{"id":12,"region":"Iowa","ava":[{"id":0,"ava_id":"upper_mississippi_river_valley","name":"Upper Mississippi River Valley","state":"Illinois|Iowa|Minnesota|Wisconsin","created":"2009-07-22","latitude":43.252158680973054,"longitude":-90.99967188169731,"latSpan":3.4359549095294497,"lonSpan":4.07795015036244},{"id":1,"ava_id":"loess_hills_district","name":"Loess Hills District","state":"Iowa|Missouri","created":"2016-03-03","latitude":41.65554400030541,"longitude":-95.66286884686977,"latSpan":2.963015999888455,"lonSpan":1.953231694587032},{"id":2,"ava_id":"iowa","name":"Iowa","state":"Iowa","created":"2009-07-22","latitude":42.45385134063923,"longitude":-93.33127036428354,"latSpan":4.796100135376591,"lonSpan":7.678787887647189}]},{"id":13,"region":"New_Jersey","ava":[{"id":0,"ava_id":"new_jersey","name":"New Jersey","state":"New Jersey","created":"2007-03-12|1988-07-23|2018-04-06","latitude":40.322236407451435,"longitude":-74.92644067651615,"latSpan":2.0915560360209255,"lonSpan":1.570344999749068},{"id":1,"ava_id":"central_delaware_valley","name":"Central Delaware Valley","state":"New Jersey|Pennsylvania","created":"1984-03-19","latitude":40.47722778248806,"longitude":-75.03419099023301,"latSpan":0.3083284351222346,"lonSpan":0.36968798044085815},{"id":2,"ava_id":"cape_may_peninsula","name":"Cape May Peninsula","state":"New Jersey","created":"2018-04-06","latitude":39.11971600026871,"longitude":-74.79749199960429,"latSpan":0.37763800047849827,"lonSpan":0.3495220004339217},{"id":3,"ava_id":"warren_hills","name":"Warren Hills","state":"New Jersey","created":"1988-07-23","latitude":40.80588944029098,"longitude":-74.98621053913615,"latSpan":0.4283611906604605,"lonSpan":0.43661435056539233},{"id":4,"ava_id":"outer_coastal_plain","name":"Outer Coastal Plain","state":"New Jersey","created":"2007-03-12","latitude":39.68359199957527,"longitude":-74.75892050017927,"latSpan":1.5101559999499727,"lonSpan":1.570344999749068}]},{"id":14,"region":"Wisconsin","ava":[{"id":0,"ava_id":"wisconsin_ledge","name":"Wisconsin Ledge","state":"Wisconsin","created":"2012-04-23","latitude":44.296203565936864,"longitude":-87.85496023067037,"latSpan":2.006269109726034,"lonSpan":1.7697798593842862},{"id":1,"ava_id":"upper_mississippi_river_valley","name":"Upper Mississippi River Valley","state":"Ilinnois|Iowa|Minnesota|Wisconsin","created":"2009-07-22","latitude":43.252158680973054,"longitude":-90.99967188169731,"latSpan":3.4359549095294497,"lonSpan":4.07795015036244},{"id":2,"ava_id":"lake_wisconsin","name":"Lake Wisconsin","state":"WI","created":"1994-01-05","latitude":43.314464349999994,"longitude":-89.6261127,"latSpan":0.10600910000000141,"lonSpan":0.19889600000000485},{"id":3,"ava_id":"wisconsin","name":"Wisconsin","state":"Wisconsin","created":"2009-07-22|2012-04-23","latitude":43.77418112345496,"longitude":-89.42731605618384,"latSpan":3.7651568945915557,"lonSpan":6.068576655900316}]},{"id":15,"region":"Michigan","ava":[{"id":0,"ava_id":"fennville","name":"Fennville","state":"Michigan","created":"1981-10-19","latitude":42.539013641644885,"longitude":-86.18381770878169,"latSpan":0.2745095799530546,"lonSpan":0.20088895923430528},{"id":1,"ava_id":"lake_michigan_shore","name":"Lake Michigan Shore","state":"Michigan","created":"1983-10-13","latitude":42.21725939605304,"longitude":-86.19854577446216,"latSpan":0.918018071136764,"lonSpan":1.2507277949979283},{"id":2,"ava_id":"tip_of_the_mitt","name":"Tip of the Mitt","state":"Michigan","created":"2018-04-06","latitude":45.40604540951444,"longitude":-84.32544973459152,"latSpan":0.7676531445604269,"lonSpan":2.1294457905875106},{"id":3,"ava_id":"leelanau_peninsula","name":"Leelanau Peninsula","state":"Michigan","created":"1982-03-15","latitude":44.99265474538882,"longitude":-85.8028458107625,"latSpan":0.436186753358875,"lonSpan":0.5518201225138029},{"id":4,"ava_id":"michigan","name":"Michigan","state":"Michigan","created":"1981-10-19","latitude":44.37410937313813,"longitude":-85.46412371254091,"latSpan":4.031621621310002,"lonSpan":3.5631828326633723},{"id":5,"ava_id":"old_mission_peninsula","name":"Old Mission Peninsula","state":"Michigan","created":"1987-05-21","latitude":44.880477941596226,"longitude":-85.52965353034745,"latSpan":0.22253649830049227,"lonSpan":0.1296842306701791}]},{"id":16,"region":"Arizona","ava":[{"id":0,"ava_id":"willcox","name":"Willcox","state":"Arizona","created":"2016-10-12","latitude":32.22056398995767,"longitude":-109.80050080844188,"latSpan":0.8052732504162705,"lonSpan":0.5863416246156703},{"id":1,"ava_id":"verde_valley","name":"Verde Valley","state":"Arizona","created":"2021-12-10","latitude":34.685569099254096,"longitude":-111.94545748115328,"latSpan":0.3504088483707051,"lonSpan":0.377132716451257},{"id":2,"ava_id":"arizona","name":"Arizona","state":"Arizona","created":"2016-10-12","latitude":32.84504879309455,"longitude":-110.7870741894418,"latSpan":3.3780319918242583,"lonSpan":2.6266938432448654},{"id":3,"ava_id":"sonoita","name":"Sonoita","state":"Arizona","created":"1984-11-26","latitude":31.629013290071875,"longitude":-110.61526427873025,"latSpan":0.2925435169133692,"lonSpan":0.46552685073952205}]},{"id":17,"region":"Massachusetts","ava":[{"id":0,"ava_id":"massachusetts","name":"Massachusetts","state":"Massachusetts","created":"1985-01-03","latitude":41.587038899702954,"longitude":-71.17767818030407,"latSpan":1.080204231733724,"lonSpan":2.433398169323411},{"id":1,"ava_id":"southeastern_new_england","name":"Southeastern New England","state":"Connecticut|Rhode Island|Massachusetts","created":"1983-07-29","latitude":41.78173090270366,"longitude":-71.69984552013379,"latSpan":1.080204231733724,"lonSpan":2.4127521688444915},{"id":2,"ava_id":"martha's_vineyard","name":"Martha's Vineyard","state":"Massachusetts","created":"1985-01-03","latitude":41.39234689670225,"longitude":-70.65551084047436,"latSpan":0.18153192891810477,"lonSpan":0.3653748104834875}]},{"id":18,"region":"North_Carolina","ava":[{"id":0,"ava_id":"swan_creek","name":"Swan Creek","state":"North Carolina","created":"2008-05-27","latitude":36.07510948730546,"longitude":-80.93917477896724,"latSpan":0.3337078794889692,"lonSpan":0.39070982157898015},{"id":1,"ava_id":"crest_of_the_blue_ridge_henderson_county","name":"Crest of the Blue Ridge Henderson County","state":"North Carolina","created":"2019-07-19","latitude":35.33206999982917,"longitude":-82.43270899972262,"latSpan":0.3363000001610317,"lonSpan":0.34311600071686144},{"id":2,"ava_id":"north_carolina","name":"North Carolina","state":"North Carolina","created":"2002-12-09","latitude":35.8115175813285,"longitude":-81.53288055714415,"latSpan":2.0704210878921856,"lonSpan":5.1726823965002495},{"id":3,"ava_id":"yadkin_valley","name":"Yadkin Valley","state":"North Carolina","created":"2002-12-09","latitude":36.14274513471703,"longitude":-80.88218762805482,"latSpan":0.8396532720459007,"lonSpan":1.3266995299638182},{"id":4,"ava_id":"appalachian_high_country","name":"Appalachian High Country","state":"North Carolina|Tennessee|Virginia","created":"2016-10-27","latitude":36.31460116651067,"longitude":-81.6272266531937,"latSpan":0.9835463327970047,"lonSpan":1.5787001213010257},{"id":5,"ava_id":"upper_hiwassee_highlands","name":"Upper Hiwassee Highlands","state":"Georgia|North Carolina","created":"2014-08-18","latitude":34.987742200002906,"longitude":-83.9302267831142,"latSpan":0.5035779099718383,"lonSpan":0.6521692259518233},{"id":6,"ava_id":"haw_river_valley","name":"Haw River Valley","state":"North Carolina","created":"2009-03-30","latitude":36.01683749960577,"longitude":-79.38575849981231,"latSpan":0.5974790007216484,"lonSpan":0.6042590004449266}]},{"id":19,"region":"Minnesota","ava":[{"id":0,"ava_id":"minnesota","name":"Minnesota","state":"Minnesota","created":"2009-07-22","latitude":43.252158680973054,"longitude":-90.99967188169731,"latSpan":3.4359549095294497,"lonSpan":4.07795015036244},{"id":1,"ava_id":"upper_mississippi_river_valley","name":"Upper Mississippi River Valley","state":"IL|IA|MN|WI","created":"2009-07-22","latitude":43.252158680973054,"longitude":-90.99967188169731,"latSpan":3.4359549095294497,"lonSpan":4.07795015036244},{"id":2,"ava_id":"alexandria_lakes","name":"Alexandria Lakes","state":"MN","created":"2003-01-14","latitude":45.98124724172641,"longitude":-95.37422363041335,"latSpan":0.09868011295407086,"lonSpan":0.08327242839403937}]},{"id":20,"region":"Kentucky","ava":[{"id":0,"ava_id":"kentucky","name":"Kentucky","state":"Kentucky","created":"1983-10-07","latitude":38.85186766334464,"longitude":-84.28150886885368,"latSpan":2.4846354574062133,"lonSpan":7.624351433664415},{"id":1,"ava_id":"ohio_river_valley","name":"Ohio River Valley","state":"IN|KY|OH|WV","created":"1983-10-07","latitude":38.85186766334464,"longitude":-84.28150886885368,"latSpan":2.4846354574062133,"lonSpan":7.624351433664415}]},{"id":21,"region":"Louisiana","ava":[{"id":0,"ava_id":"mississippi_delta","name":"Mississippi Delta","state":"Mississippi|Louisiana|Tennessee","created":"1984-07-07","latitude":33.72114024575009,"longitude":-90.582786120863,"latSpan":2.557479183849992,"lonSpan":1.165367009401237},{"id":1,"ava_id":"louisiana","name":"Louisiana","state":"Louisiana","created":"1984-07-07","latitude":33.72114024575009,"longitude":-90.582786120863,"latSpan":2.557479183849992,"lonSpan":1.165367009401237}]},{"id":22,"region":"Maryland","ava":[{"id":0,"ava_id":"linganore","name":"Linganore","state":"Maryland","created":"1983-08-18","latitude":39.4396817660001,"longitude":-77.22541805649999,"latSpan":0.1521182719999956,"lonSpan":0.28070971300000735},{"id":1,"ava_id":"Maryland","name":"Maryland","state":"Maryland|Pennsylvania","created":"1985-07-23","latitude":39.597463623051596,"longitude":-77.40047595599454,"latSpan":1.0523241758456336,"lonSpan":1.1329088960000888},{"id":2,"ava_id":"catoctin","name":"Catoctin","state":"Maryland","created":"1983-10-13","latitude":39.49689386215468,"longitude":-77.55088228248366,"latSpan":0.4463022740006295,"lonSpan":0.4134562154741843},{"id":3,"ava_id":"cumberland_valley","name":"Cumberland Valley","state":"Maryland|Pennsylvania","created":"1985-07-23","latitude":39.855815241,"longitude":-77.42512752899995,"latSpan":0.9405033199999977,"lonSpan":1.1329088960000888}]},{"id":23,"region":"Texas","ava":[{"id":0,"ava_id":"texas_hill_country","name":"Texas Hill Country","state":"Texas","created":"1993-07-28","latitude":30.239100928967083,"longitude":-98.93691935848037,"latSpan":2.0610614415609696,"lonSpan":2.539034332595108},{"id":1,"ava_id":"mesilla_valley","name":"Mesilla Valley","state":"New Mexico|Texas","created":"1985-02-14","latitude":32.13661961240876,"longitude":-106.72393856001557,"latSpan":0.7050245850369912,"lonSpan":0.4304195944269651},{"id":2,"ava_id":"texas_high_plains","name":"Texas High Plains","state":"Texas","created":"1993-03-02","latitude":33.84348556934221,"longitude":-102.01865322275958,"latSpan":2.2849595467784454,"lonSpan":2.093525222676405},{"id":3,"ava_id":"texoma","name":"Texoma","state":"Texas","created":"2005-12-07","latitude":33.6882468632129,"longitude":-96.91353393226949,"latSpan":0.6031315169823301,"lonSpan":2.131586596702846},{"id":4,"ava_id":"bell_mountain","name":"Bell Mountain","state":"Texas","created":"1986-11-10","latitude":30.41473146912247,"longitude":-98.72451084964649,"latSpan":0.06393615177188394,"lonSpan":0.05164451201946463},{"id":5,"ava_id":"texas_davis_mountains","name":"Texas Davis Mountains","state":"Texas","created":"1998-03-11","latitude":30.68946635,"longitude":-104.01190679999999,"latSpan":0.326486899999999,"lonSpan":0.5532694000000049},{"id":6,"ava_id":"texas","name":"Texas","state":"Texas","created":"1986-11-10|1992-06-15|1988-12-22|1993-03-02|1985-02-14|1998-03-11|1993-07-28|2005-12-07","latitude":32.59027778717407,"longitude":-99.28970217116982,"latSpan":5.777395134544829,"lonSpan":7.217675200179713},{"id":7,"ava_id":"fredericksburg_in_the_texas_hill_country","name":"Fredericksburg in the Texas Hill Country","state":"Texas","created":"1988-12-22","latitude":30.2647822557666,"longitude":-98.8571320184264,"latSpan":0.18869163037359726,"lonSpan":0.239692347554751},{"id":8,"ava_id":"escondido_valley","name":"Escondido Valley","state":"Texas","created":"1992-06-15","latitude":30.83751416292757,"longitude":-102.46252948912638,"latSpan":0.10622995842392058,"lonSpan":0.20110889711547486}]},{"id":24,"region":"Hawaii","ava":[{"id":0,"ava_id":"ulupalakua","name":"Ulupalakua","state":"Hawaii","created":"2021-08-02","latitude":20.677750719258455,"longitude":-156.40231669022342,"latSpan":0.004211256788465789,"lonSpan":0.008576855872803435},{"id":1,"ava_id":"hawaii","name":"Hawaii","state":"Hawaii","created":"2021-08-02","latitude":20.677750719258455,"longitude":-156.40231669022342,"latSpan":0.004211256788465789,"lonSpan":0.008576855872803435}]},{"id":25,"region":"Rhode_Island","ava":[{"id":0,"ava_id":"southeastern_new_england","name":"Southeastern New England","state":"Connecticut|Rhode Island|Massachusetts","created":"1983-07-29","latitude":41.78173090270366,"longitude":-71.69984552013379,"latSpan":1.080204231733724,"lonSpan":2.4127521688444915},{"id":1,"ava_id":"rhode_island","name":"Rhode Island","state":"Rhode Island","created":"1983-07-29","latitude":41.78173090270366,"longitude":-71.69984552013379,"latSpan":1.080204231733724,"lonSpan":2.4127521688444915}]},{"id":26,"region":"Pennsylvania","ava":[{"id":0,"ava_id":"central_delaware_valley","name":"Central Delaware Valley","state":"New Jersey|Pennsylvania","created":"1984-03-19","latitude":40.47722778248806,"longitude":-75.03419099023301,"latSpan":0.3083284351222346,"lonSpan":0.36968798044085815},{"id":1,"ava_id":"pennsylvania","name":"Pennsylvania","state":"Pennsylvania","created":"1985-07-23|1982-05-12|2008-03-11|1984-03-19","latitude":40.61310149348619,"longitude":-77.14382084294405,"latSpan":3.4922238857811365,"lonSpan":8.899399061727948},{"id":2,"ava_id":"lancaster_valley","name":"Lancaster Valley","state":"Pennsylvania","created":"1982-05-12","latitude":40.064376408499996,"longitude":-76.2788636085,"latSpan":0.2060577170000002,"lonSpan":0.7876791669999932},{"id":3,"ava_id":"lehigh_valley","name":"Lehigh Valley","state":"Pennsylvania","created":"2008-03-11","latitude":40.64070916950005,"longitude":-75.78354397706647,"latSpan":0.723792146999898,"lonSpan":1.4607494921329334},{"id":4,"ava_id":"cumberland_valley","name":"Cumberland Valley","state":"Maryland|Pennsylvania","created":"1985-07-23","latitude":39.855815241,"longitude":-77.42512752899995,"latSpan":0.9405033199999977,"lonSpan":1.1329088960000888},{"id":5,"ava_id":"lake_erie","name":"Lake Erie","state":"New York|Ohio|Pennsylvania","created":"1983-11-21","latitude":42.027378865942836,"longitude":-81.1973781099208,"latSpan":1.7008172016765926,"lonSpan":5.10273590363947}]},{"id":27,"region":"Tennessee","ava":[{"id":0,"ava_id":"mississippi_delta","name":"Mississippi Delta","state":"Mississippi|Louisiana|Tennessee","created":"1984-07-07","latitude":33.72114024575009,"longitude":-90.582786120863,"latSpan":2.557479183849992,"lonSpan":1.165367009401237},{"id":1,"ava_id":"appalachian_high_country","name":"Appalachian High Country","state":"North Carolina|Tennessee|Virginia","created":"2016-10-27","latitude":36.31460116651067,"longitude":-81.6272266531937,"latSpan":0.9835463327970047,"lonSpan":1.5787001213010257},{"id":2,"ava_id":"tennessee","name":"Tennessee","state":"Tennessee","created":"1984-07-07|2016-10-27","latitude":35.01787070613038,"longitude":-86.10500638702835,"latSpan":4.363973679084076,"lonSpan":10.32759303302042}]},{"id":28,"region":"Idaho","ava":[{"id":0,"ava_id":"idaho","name":"Idaho","state":"Idaho","created":"2015-11-25","latitude":44.64546325710364,"longitude":-116.43469570594955,"latSpan":4.196695448514632,"lonSpan":3.655659495556307},{"id":1,"ava_id":"snake_river_valley","name":"Snake River Valley","state":"Idaho|Oregon","created":"2007-04-09","latitude":43.76354173717782,"longitude":-116.18684964274775,"latSpan":2.472520386016292,"lonSpan":3.655659495556307},{"id":2,"ava_id":"lewis-clark_valley","name":"Lewis-Clark Valley","state":"Idaho|Washington","created":"2016-05-20","latitude":46.37929719826611,"longitude":-116.72542907597258,"latSpan":0.6893595888363961,"lonSpan":1.3818628343921375},{"id":3,"ava_id":"eagle_foothills","name":"Eagle Foothills","state":"Idaho","created":"2015-11-25","latitude":43.793550835867016,"longitude":-116.39180839912834,"latSpan":0.1523174883902385,"lonSpan":0.24198290039468873}]},{"id":29,"region":"Oregon","ava":[{"id":0,"ava_id":"elkton_oregon","name":"Elkton Oregon","state":"Oregon","created":"2013-03-07","latitude":43.626134349999994,"longitude":-123.57749620000001,"latSpan":0.21423750000001007,"lonSpan":0.256340800000018},{"id":1,"ava_id":"lower_long_tom","name":"Lower Long Tom","state":"Oregon","created":"2021-12-10","latitude":44.22750682495888,"longitude":-123.35858529458307,"latSpan":0.1585712298518942,"lonSpan":0.15490403636373173},{"id":2,"ava_id":"rogue_valley","name":"Rogue Valley","state":"Oregon","created":"1991-02-22","latitude":42.370415,"longitude":-123.149858,"latSpan":0.7406380000000041,"lonSpan":1.2558039999999977},{"id":3,"ava_id":"ribbon_ridge","name":"Ribbon Ridge","state":"Oregon","created":"2005-06-01","latitude":45.356072,"longitude":-123.0792015,"latSpan":0.05122800000000183,"lonSpan":0.04497299999999882},{"id":4,"ava_id":"columbia_gorge","name":"Columbia Gorge","state":"Oregon|Washington","created":"2004-05-10","latitude":45.68728685185849,"longitude":-121.46182013808053,"latSpan":0.36553956708385726,"lonSpan":0.4180243909988377},{"id":5,"ava_id":"snake_river_valley","name":"Snake River Valley","state":"Idaho|Oregon","created":"2007-04-09","latitude":43.76354173717782,"longitude":-116.18684964274775,"latSpan":2.472520386016292,"lonSpan":3.655659495556307},{"id":6,"ava_id":"oregon","name":"Oregon","state":"Oregon","created":"1984-01-03|1984-12-13|2004-12-08|2007-04-09","latitude":44.52001184226097,"longitude":-120.36494580171636,"latSpan":6.2923367823347505,"lonSpan":9.469459020544292},{"id":7,"ava_id":"dundee_hills","name":"Dundee Hills","state":"Oregon","created":"2005-01-31","latitude":45.2793165,"longitude":-123.0594515,"latSpan":0.08580700000000263,"lonSpan":0.11738100000000884},{"id":8,"ava_id":"van_duzer_corridor","name":"Van Duzer Corridor","state":"Oregon","created":"2018-12-14","latitude":45.00970958169712,"longitude":-123.2863869617226,"latSpan":0.15353092714294547,"lonSpan":0.25449792344520006},{"id":9,"ava_id":"laurelwood_district","name":"Laurelwood District","state":"Oregon","created":"2020-07-06","latitude":45.399211983943616,"longitude":-122.97123583857717,"latSpan":0.19498736607402378,"lonSpan":0.24969593965626302},{"id":10,"ava_id":"chehalem_mountains","name":"Chehalem Mountains","state":"Oregon","created":"2006-11-24","latitude":45.377720999999994,"longitude":-122.961154,"latSpan":0.2377880000000019,"lonSpan":0.32280200000001},{"id":11,"ava_id":"umpqua_valley","name":"Umpqua Valley","state":"Oregon","created":"1984-03-16","latitude":43.33729601151617,"longitude":-123.39819021548122,"latSpan":0.8838152912622306,"lonSpan":0.8606027368412299},{"id":12,"ava_id":"yamhill-carlton","name":"Yamhill-Carlton","state":"Oregon","created":"2004-11-18","latitude":45.34625566592583,"longitude":-123.18704758917622,"latSpan":0.1837102100900978,"lonSpan":0.21172641098893052},{"id":13,"ava_id":"the_rocks_district_of_milton-freewater","name":"The Rocks District of Milton-Freewater","state":"Oregon","created":"2015-03-11","latitude":45.95610998323523,"longitude":-118.4066429135181,"latSpan":0.0337399664704634,"lonSpan":0.07020582703620448},{"id":14,"ava_id":"applegate_valley","name":"Applegate Valley","state":"Oregon","created":"2000-12-14","latitude":42.26504875130216,"longitude":-123.2000025,"latSpan":0.3329395026043258,"lonSpan":0.7636229999999955},{"id":15,"ava_id":"columbia_valley","name":"Columbia Valley","state":"Oregon|Washington","created":"1984-12-13","latitude":46.75525021584244,"longitude":-119.16793618548897,"latSpan":3.0737314344187894,"lonSpan":4.258324063463448},{"id":16,"ava_id":"willamette_valley","name":"Willamette Valley","state":"Oregon","created":"1984-01-03","latitude":44.67165328688132,"longitude":-122.92984694458882,"latSpan":2.1910067639428163,"lonSpan":1.6041153158161592},{"id":17,"ava_id":"mount_pisgah,_polk_county,_oregon","name":"Mount Pisgah, Polk County, Oregon","state":"Oregon","created":"2022-06-03","latitude":44.88044690630427,"longitude":-123.29078911115835,"latSpan":0.05698615139532137,"lonSpan":0.07500780671132645},{"id":18,"ava_id":"eola_-_amity_hills","name":"Eola - Amity Hills","state":"Oregon","created":"2006-08-16","latitude":45.0476495,"longitude":-123.142266,"latSpan":0.23383499999999913,"lonSpan":0.13302199999999686},{"id":19,"ava_id":"walla_walla_valley","name":"Walla Walla Valley","state":"Oregon|Washington","created":"1984-01-12","latitude":46.018315102830826,"longitude":-118.42614615489103,"latSpan":0.38050534283310355,"lonSpan":0.6563578710517675},{"id":20,"ava_id":"mcminnville","name":"McMinnville","state":"Oregon","created":"2005-03-21","latitude":45.16027897106339,"longitude":-123.34262503689646,"latSpan":0.1417117494024751,"lonSpan":0.2457766972385258},{"id":21,"ava_id":"tualatin_hills","name":"Tualatin Hills","state":"Oregon","created":"2020-07-06","latitude":45.60031215931319,"longitude":-123.12190885538456,"latSpan":0.3336890190790669,"lonSpan":0.518598010337243},{"id":22,"ava_id":"southern_oregon","name":"Southern Oregon","state":"Oregon","created":"2004-12-08","latitude":42.889602129142304,"longitude":-123.17515043403992,"latSpan":1.7796459568504446,"lonSpan":1.3066569629479403},{"id":23,"ava_id":"red_hill_douglas_county,_oregon","name":"Red Hill Douglas County, Oregon","state":"Oregon","created":"2005-11-14","latitude":43.54428386829411,"longitude":-123.27016508019904,"latSpan":0.11483682237266635,"lonSpan":0.09108927460410143}]},{"id":30,"region":"California","ava":[{"id":0,"ava_id":"tracy_hills","name":"Tracy Hills","state":"California","created":"2006-12-08","latitude":37.634247884973846,"longitude":-121.3876891582241,"latSpan":0.13772319772554908,"lonSpan":0.2373452500317086},{"id":1,"ava_id":"los_carneros","name":"Los Carneros","state":"California","created":"1983-09-19","latitude":38.227236250000004,"longitude":-122.41358085000002,"latSpan":0.15291069999999962,"lonSpan":0.2625848999999931},{"id":2,"ava_id":"alexander_valley","name":"Alexander Valley","state":"California","created":"1984-11-23","latitude":38.719084293996765,"longitude":-122.90267920143552,"latSpan":0.2673644455386608,"lonSpan":0.3570664886690196},{"id":3,"ava_id":"monterey","name":"Monterey","state":"California","created":"1984-06-15","latitude":36.355762888507854,"longitude":-121.38862987164245,"latSpan":1.1281217190792248,"lonSpan":1.1806815479427115},{"id":4,"ava_id":"diablo_grande","name":"Diablo Grande","state":"California","created":"1998-08-21","latitude":37.356823938998716,"longitude":-121.27649364547221,"latSpan":0.15569688817907235,"lonSpan":0.15110524841334438},{"id":5,"ava_id":"bennett_valley","name":"Bennett Valley","state":"California","created":"2003-12-29","latitude":38.39357222518552,"longitude":-122.63051464311155,"latSpan":0.07612154298990248,"lonSpan":0.08842487384579556},{"id":6,"ava_id":"palos_verdes_peninsula","name":"Palos Verdes Peninsula","state":"California","created":"2021-07-19","latitude":33.76313051740972,"longitude":-118.36859027435078,"latSpan":0.08232892341913356,"lonSpan":0.11966496822697081},{"id":7,"ava_id":"mcdowell_valley","name":"McDowell Valley","state":"California","created":"1982-01-04","latitude":38.96892853209805,"longitude":-123.04297688670869,"latSpan":0.04552450940870756,"lonSpan":0.04389124903683239},{"id":8,"ava_id":"oakville","name":"Oakville","state":"California","created":"1993-08-02","latitude":38.43179174324874,"longitude":-122.38406165942962,"latSpan":0.06642532725680184,"lonSpan":0.10769728389826128},{"id":9,"ava_id":"happy_canyon_of_santa_barbara","name":"Happy Canyon of Santa Barbara","state":"California","created":"2009-11-09","latitude":34.66562764689736,"longitude":-120.00006317492125,"latSpan":0.1543647089423743,"lonSpan":0.10159186061908088},{"id":10,"ava_id":"squaw_valley-miramonte","name":"Squaw Valley-Miramonte","state":"California","created":"2015-09-08","latitude":36.71606057921065,"longitude":-119.15856166656596,"latSpan":0.11723224550362232,"lonSpan":0.24285037239144458},{"id":11,"ava_id":"solano_county_green_valley","name":"Solano County Green Valley","state":"California","created":"1983-01-28","latitude":38.26106311656996,"longitude":-122.17554085077381,"latSpan":0.10962450381818911,"lonSpan":0.08236249926876837},{"id":12,"ava_id":"sonoma_mountain","name":"Sonoma Mountain","state":"California","created":"1985-02-22","latitude":38.35148031220271,"longitude":-122.56628647705199,"latSpan":0.07407233256476076,"lonSpan":0.09800708810398362},{"id":13,"ava_id":"ballard_canyon","name":"Ballard Canyon","state":"California","created":"2013-11-01","latitude":34.64217873670856,"longitude":-120.15174056753989,"latSpan":0.07595929142859603,"lonSpan":0.06152390069460978},{"id":14,"ava_id":"el_pomar_district","name":"El Pomar District","state":"California","created":"2014-11-10","latitude":35.56342257646598,"longitude":-120.61662908235041,"latSpan":0.12004504409519257,"lonSpan":0.13218481566381968},{"id":15,"ava_id":"malibu-newton_canyon","name":"Malibu-Newton Canyon","state":"California","created":"1996-06-13","latitude":34.08123431809254,"longitude":-118.79929603828921,"latSpan":0.016309865139895408,"lonSpan":0.039549016798105185},{"id":16,"ava_id":"anderson_valley","name":"Anderson Valley","state":"California","created":"1983-09-19","latitude":39.06369706684768,"longitude":-123.46255096707877,"latSpan":0.20916362323507087,"lonSpan":0.34478218212299794},{"id":17,"ava_id":"lime_kiln_valley","name":"Lime Kiln Valley","state":"California","created":"1982-07-06","latitude":36.693929053508754,"longitude":-121.34791458996833,"latSpan":0.03514810607214969,"lonSpan":0.05553815154590325},{"id":18,"ava_id":"green_valley_of_russian_river_valley","name":"Green Valley of Russian River Valley","state":"California","created":"1983-12-21","latitude":38.4405663860372,"longitude":-122.88471008011436,"latSpan":0.1250107179301807,"lonSpan":0.12110652194603233},{"id":19,"ava_id":"san_miguel_district","name":"San Miguel District","state":"California","created":"2014-11-10","latitude":35.74174553733245,"longitude":-120.69580995131778,"latSpan":0.09887188610942843,"lonSpan":0.1396764819230043},{"id":20,"ava_id":"paso_robles_willow_creek_district","name":"Paso Robles Willow Creek District","state":"California","created":"2014-11-10","latitude":35.58437242111073,"longitude":-120.7623069021997,"latSpan":0.08547961458551612,"lonSpan":0.14035034118865042},{"id":21,"ava_id":"rutherford","name":"Rutherford","state":"California","created":"1993-08-02","latitude":38.4674356,"longitude":-122.41729915,"latSpan":0.0647373999999985,"lonSpan":0.09547249999999963},{"id":22,"ava_id":"fair_play","name":"Fair Play","state":"California","created":"2001-04-27","latitude":38.59926995332239,"longitude":-120.66814689072368,"latSpan":0.10736152353466366,"lonSpan":0.14814260879099095},{"id":23,"ava_id":"petaluma_gap","name":"Petaluma Gap","state":"California","created":"2018-01-08","latitude":38.2388592,"longitude":-122.7556371,"latSpan":0.2675337999999954,"lonSpan":0.645893399999963},{"id":24,"ava_id":"central_coast","name":"Central Coast","state":"California","created":"1985-11-25","latitude":36.226560011910664,"longitude":-121.04305639593133,"latSpan":3.663471466404424,"lonSpan":2.9556516867941554},{"id":25,"ava_id":"stags_leap_district","name":"Stags Leap District","state":"California","created":"1989-02-27","latitude":38.404465721560825,"longitude":-122.32494192039354,"latSpan":0.052675411337524736,"lonSpan":0.05383147992124293},{"id":26,"ava_id":"redwood_valley","name":"Redwood Valley","state":"California","created":"1997-02-21","latitude":39.3007333,"longitude":-123.19676991334299,"latSpan":0.12947880000000112,"lonSpan":0.12997262668598353},{"id":27,"ava_id":"sonoma_valley","name":"Sonoma Valley","state":"California","created":"1982-01-04","latitude":38.29367646885994,"longitude":-122.51222138963067,"latSpan":0.35523214372867784,"lonSpan":0.32501138080756675},{"id":28,"ava_id":"sonoma_coast","name":"Sonoma Coast","state":"California","created":"1987-07-13","latitude":38.445294700000005,"longitude":-122.9417349,"latSpan":0.6672615999999962,"lonSpan":1.1840384000000057},{"id":29,"ava_id":"fiddletown","name":"Fiddletown","state":"California","created":"1983-11-03","latitude":38.49546009259197,"longitude":-120.7436386126304,"latSpan":0.05654956712870529,"lonSpan":0.11140919197832488},{"id":30,"ava_id":"arroyo_grande_valley","name":"Arroyo Grande Valley","state":"California","created":"1990-02-05","latitude":35.14815595001841,"longitude":-120.4859278318438,"latSpan":0.14260734601833747,"lonSpan":0.20592079968983512},{"id":31,"ava_id":"st._helena","name":"St. Helena","state":"California","created":"1995-10-11","latitude":38.52100841768396,"longitude":-122.46447687587089,"latSpan":0.09078491992673321,"lonSpan":0.10516985022255199},{"id":32,"ava_id":"san_benito","name":"San Benito","state":"California","created":"1987-11-04","latitude":36.71062007736007,"longitude":-121.31452104244178,"latSpan":0.17132489978251897,"lonSpan":0.19507890760604596},{"id":33,"ava_id":"pacheco_pass","name":"Pacheco Pass","state":"California","created":"1984-04-11","latitude":36.970385434682385,"longitude":-121.37813178242605,"latSpan":0.05908312959149242,"lonSpan":0.02834467246069039},{"id":34,"ava_id":"cucamonga_valley","name":"Cucamonga Valley","state":"California","created":"1995-05-01","latitude":34.05403196820959,"longitude":-117.47712059399204,"latSpan":0.2661253221903195,"lonSpan":0.3480224444759017},{"id":35,"ava_id":"howell_mountain","name":"Howell Mountain","state":"California","created":"1984-01-30","latitude":38.57894594126221,"longitude":-122.45044118892858,"latSpan":0.10681205322738663,"lonSpan":0.14254629578181266},{"id":36,"ava_id":"trinity_lakes","name":"Trinity Lakes","state":"California","created":"2005-04-29","latitude":40.87707881109331,"longitude":-122.76446002479199,"latSpan":0.4530233314761034,"lonSpan":0.35091165158068804},{"id":37,"ava_id":"upper_lake_valley","name":"Upper Lake Valley","state":"California","created":"2022-07-05","latitude":39.1566821,"longitude":-122.90167629999999,"latSpan":0.11452560000000034,"lonSpan":0.19409340000001407},{"id":38,"ava_id":"saddle_rock-malibu","name":"Saddle Rock-Malibu","state":"California","created":"2006-08-16","latitude":34.098140615164354,"longitude":-118.82989401715086,"latSpan":0.032548782453609704,"lonSpan":0.05700924201022417},{"id":39,"ava_id":"clear_lake","name":"Clear Lake","state":"California","created":"1984-06-07","latitude":39.02905784871083,"longitude":-122.76447430981932,"latSpan":0.3734256875577131,"lonSpan":0.4684974518364555},{"id":40,"ava_id":"san_luis_obispo_coast","name":"San Luis Obispo Coast","state":"California","created":"2022-04-08","latitude":35.37902128694239,"longitude":-120.84408812232851,"latSpan":0.7739842851392567,"lonSpan":0.9677271461147683},{"id":41,"ava_id":"ben_lomond_mountain","name":"Ben Lomond Mountain","state":"California","created":"1988-01-08","latitude":37.07936485570029,"longitude":-122.14724153161875,"latSpan":0.16489691543624474,"lonSpan":0.19122298091025414},{"id":42,"ava_id":"sierra_pelona_valley","name":"Sierra Pelona Valley","state":"California","created":"2010-08-23","latitude":34.50896289389698,"longitude":-118.30977451089316,"latSpan":0.08170859121771201,"lonSpan":0.1244747137204456},{"id":43,"ava_id":"mt._harlan","name":"Mt. Harlan","state":"California","created":"1990-12-17","latitude":36.69685083572324,"longitude":-121.41185725607207,"latSpan":0.05004067875708529,"lonSpan":0.11983150960136868},{"id":44,"ava_id":"guenoc_valley","name":"Guenoc Valley","state":"California","created":"1981-12-21","latitude":38.74314897382635,"longitude":-122.51702283717131,"latSpan":0.057212705077738235,"lonSpan":0.06342350486750092},{"id":45,"ava_id":"coombsville","name":"Coombsville","state":"California","created":"2002-01-13","latitude":38.30599957632127,"longitude":-122.24435381590621,"latSpan":0.08153910357787453,"lonSpan":0.08299964140813643},{"id":46,"ava_id":"california","name":"California","state":"California","created":"2002-03-25","latitude":36.257054284773545,"longitude":-120.0085057366654,"latSpan":7.061935002012099,"lonSpan":7.213068834364222},{"id":47,"ava_id":"pine_mountain-cloverdale_peak","name":"Pine Mountain-Cloverdale Peak","state":"California","created":"2011-11-28","latitude":38.856654301414395,"longitude":-122.97328920326947,"latSpan":0.04448922617211082,"lonSpan":0.06677324592043021},{"id":48,"ava_id":"alta_mesa","name":"Alta Mesa","state":"California","created":"2006-08-16","latitude":38.338661638985585,"longitude":-121.28659031013959,"latSpan":0.19924415752928581,"lonSpan":0.23046792528187154},{"id":49,"ava_id":"paicines","name":"Paicines","state":"California","created":"1982-09-15","latitude":36.68885666139563,"longitude":-121.26316705338925,"latSpan":0.12779806785364656,"lonSpan":0.09237092950097292},{"id":50,"ava_id":"mt._veeder","name":"Mt. Veeder","state":"California","created":"1990-03-22","latitude":38.358187087059335,"longitude":-122.4210578510199,"latSpan":0.16138619086906658,"lonSpan":0.15363929140777088},{"id":51,"ava_id":"santa_margarita_ranch","name":"Santa Margarita Ranch","state":"California","created":"2014-11-10","latitude":35.37352702661403,"longitude":-120.59010767038012,"latSpan":0.11514861079110261,"lonSpan":0.1331061516897165},{"id":52,"ava_id":"willow_creek","name":"Willow Creek","state":"California","created":"1983-09-19","latitude":40.92929135279495,"longitude":-123.61439122603193,"latSpan":0.11308281480378213,"lonSpan":0.11425494059436403},{"id":53,"ava_id":"san_pasqual_valley","name":"San Pasqual Valley","state":"California","created":"1981-09-16","latitude":33.078781750000005,"longitude":-116.99519885,"latSpan":0.11012910000000176,"lonSpan":0.15555110000002514},{"id":54,"ava_id":"york_mountain","name":"York Mountain","state":"California","created":"1983-09-23","latitude":35.55090510447134,"longitude":-120.81596202911263,"latSpan":0.06110706593193527,"lonSpan":0.09557536337923977},{"id":55,"ava_id":"rockpile","name":"Rockpile","state":"California","created":"2002-04-29","latitude":38.75898695,"longitude":-123.1509388,"latSpan":0.10024989999999434,"lonSpan":0.19095060000002206},{"id":56,"ava_id":"malibu_coast","name":"Malibu Coast","state":"California","created":"2014-08-18","latitude":34.102789057662854,"longitude":-118.82299585683484,"latSpan":0.20521371689838475,"lonSpan":0.5162908799673147},{"id":57,"ava_id":"suisun_valley","name":"Suisun Valley","state":"California","created":"1982-12-27","latitude":38.26311487502385,"longitude":-122.09269812694195,"latSpan":0.10567254892822575,"lonSpan":0.08556176722035502},{"id":58,"ava_id":"atlas_peak","name":"Atlas Peak","state":"California","created":"1992-02-24","latitude":38.42297717468948,"longitude":-122.26329665264551,"latSpan":0.09245167904872886,"lonSpan":0.1056058121544936},{"id":59,"ava_id":"yountville","name":"Yountville","state":"California","created":"1999-05-18","latitude":38.39995116807428,"longitude":-122.36348428463734,"latSpan":0.0821288002455205,"lonSpan":0.11914066428079195},{"id":60,"ava_id":"russian_river_valley","name":"Russian River Valley","state":"California","created":"1983-11-21","latitude":38.47644688160912,"longitude":-122.8523705787241,"latSpan":0.351776644318754,"lonSpan":0.35727193882776476},{"id":61,"ava_id":"oak_knoll_district_of_napa_valley","name":"Oak Knoll District of Napa Valley","state":"California","created":"2004-04-26","latitude":38.34845209999999,"longitude":-122.32159259999997,"latSpan":0.06787740000000042,"lonSpan":0.09529060000001266},{"id":62,"ava_id":"knights_valley","name":"Knights Valley","state":"California","created":"1983-11-21","latitude":38.648667953071936,"longitude":-122.69210634470156,"latSpan":0.17477598802840788,"lonSpan":0.1379921073435355},{"id":63,"ava_id":"inwood_valley","name":"Inwood Valley","state":"California","created":"2012-10-15","latitude":40.527095539502156,"longitude":-121.9753020643358,"latSpan":0.11261405385479861,"lonSpan":0.23277360597369068},{"id":64,"ava_id":"arroyo_seco","name":"Arroyo Seco","state":"California","created":"1983-05-16","latitude":36.32813090592029,"longitude":-121.30307918228294,"latSpan":0.15250449376330266,"lonSpan":0.24685087490254887},{"id":65,"ava_id":"seiad_valley","name":"Seiad Valley","state":"California","created":"1994-06-20","latitude":41.843773534228454,"longitude":-123.17650368047669,"latSpan":0.048674527968358916,"lonSpan":0.07510227654962875},{"id":66,"ava_id":"cosumnes_river","name":"Cosumnes River","state":"California","created":"2006-08-16","latitude":38.337238199153276,"longitude":-121.38938791716001,"latSpan":0.20166905326703954,"lonSpan":0.17465936538825133},{"id":67,"ava_id":"adelaida_district","name":"Adelaida District","state":"California","created":"2014-11-10","latitude":35.64465728247792,"longitude":-120.81620743320558,"latSpan":0.13425554413888108,"lonSpan":0.2584199886692886},{"id":68,"ava_id":"santa_cruz_mountains","name":"Santa Cruz Mountains","state":"California","created":"1982-01-04","latitude":37.231596793117795,"longitude":-122.0400927236858,"latSpan":0.5520514197921074,"lonSpan":0.7572097544222203},{"id":69,"ava_id":"paso_robles_highlands_district","name":"Paso Robles Highlands District","state":"California","created":"2014-11-10","latitude":35.51322915,"longitude":-120.31002809999998,"latSpan":0.14656610000000114,"lonSpan":0.23100660000001483},{"id":70,"ava_id":"merritt_island","name":"Merritt Island","state":"California","created":"1983-06-16","latitude":38.37177795691787,"longitude":-121.54907425484893,"latSpan":0.08764716234740177,"lonSpan":0.06936761667439839},{"id":71,"ava_id":"jahant","name":"Jahant","state":"California","created":"2006-08-16","latitude":38.22293990578091,"longitude":-121.29471065268487,"latSpan":0.0677354649411086,"lonSpan":0.24868008828686072},{"id":72,"ava_id":"gabilan_mountains","name":"Gabilan Mountains","state":"California","created":"2022-09-14","latitude":36.60699994603119,"longitude":-121.32722533679112,"latSpan":0.3970295368680752,"lonSpan":0.45138396894388677},{"id":73,"ava_id":"edna_valley","name":"Edna Valley","state":"California","created":"1982-06-11","latitude":35.23178926973241,"longitude":-120.61948367185191,"latSpan":0.1247439036213649,"lonSpan":0.15350825029170778},{"id":74,"ava_id":"high_valley","name":"High Valley","state":"California","created":"2005-08-01","latitude":39.039826134500515,"longitude":-122.67699572771332,"latSpan":0.06239476167019831,"lonSpan":0.1729760071093409},{"id":75,"ava_id":"creston_district","name":"Creston District","state":"California","created":"2014-11-10","latitude":35.514852333167966,"longitude":-120.45827693250396,"latSpan":0.14900825164418308,"lonSpan":0.2050448555265092},{"id":76,"ava_id":"clements_hills","name":"Clements Hills","state":"California","created":"2006-08-16","latitude":38.145369244674725,"longitude":-121.04524838427304,"latSpan":0.19980152650745708,"lonSpan":0.25244934865402513},{"id":77,"ava_id":"eagle_peak_mendocino_county","name":"Eagle Peak Mendocino County","state":"California","created":"2014-11-10","latitude":39.29160683874168,"longitude":-123.31527463585321,"latSpan":0.13759020762424257,"lonSpan":0.1447084102655367},{"id":78,"ava_id":"borden_ranch","name":"Borden Ranch","state":"California","created":"2006-08-16","latitude":38.329675445218726,"longitude":-121.1153312455444,"latSpan":0.19010197542713314,"lonSpan":0.22213289755603682},{"id":79,"ava_id":"livermore_valley","name":"Livermore Valley","state":"California","created":"1982-10-01","latitude":37.70096796957836,"longitude":-121.83766544943377,"latSpan":0.3614055315795568,"lonSpan":0.453893220978415},{"id":80,"ava_id":"spring_mountain_district","name":"Spring Mountain District","state":"California","created":"1993-06-14","latitude":38.509067974625275,"longitude":-122.5266318765197,"latSpan":0.083745548906478,"lonSpan":0.09436588418158465},{"id":81,"ava_id":"calistoga","name":"Calistoga","state":"California","created":"2010-01-07","latitude":38.59129895279291,"longitude":-122.5721342150692,"latSpan":0.08281982288061585,"lonSpan":0.149238415149739},{"id":82,"ava_id":"tehachapi_mountains","name":"Tehachapi Mountains","state":"California","created":"2020-12-21","latitude":35.118703533868384,"longitude":-118.50530860272104,"latSpan":0.1149210329968966,"lonSpan":0.36361538035561125},{"id":83,"ava_id":"carmel_valley","name":"Carmel Valley","state":"California","created":"1983-01-13","latitude":36.43107696930196,"longitude":-121.6908292446177,"latSpan":0.11746526752314423,"lonSpan":0.16021414392805866},{"id":84,"ava_id":"manton_valley","name":"Manton Valley","state":"California","created":"2014-09-02","latitude":40.432229072817286,"longitude":-121.81746540630022,"latSpan":0.06509204950428682,"lonSpan":0.16493192986949623},{"id":85,"ava_id":"san_francisco_bay","name":"San Francisco Bay","state":"California","created":"1999-03-22","latitude":37.567927463229196,"longitude":-121.94236296337729,"latSpan":1.2838572107792245,"lonSpan":1.1570732918847426},{"id":86,"ava_id":"south_coast","name":"South Coast","state":"California","created":"1985-12-23","latitude":33.240488529673705,"longitude":-117.36528329122284,"latSpan":1.4126828161476226,"lonSpan":1.4996774041602237},{"id":87,"ava_id":"diamond_mountain_district","name":"Diamond Mountain District","state":"California","created":"2001-07-31","latitude":38.55931951903946,"longitude":-122.57460266222893,"latSpan":0.04106430308390685,"lonSpan":0.10428322047616234},{"id":88,"ava_id":"yorkville_highlands","name":"Yorkville Highlands","state":"California","created":"1998-06-08","latitude":38.90555715,"longitude":-123.2008623,"latSpan":0.134349499999999,"lonSpan":0.27720840000000635},{"id":89,"ava_id":"mokelumne_river","name":"Mokelumne River","state":"California","created":"2006-08-16","latitude":38.15706341848218,"longitude":-121.29846702527001,"latSpan":0.19909379156275264,"lonSpan":0.29828516241767034},{"id":90,"ava_id":"hames_valley","name":"Hames Valley","state":"California","created":"1994-04-25","latitude":35.883235708088726,"longitude":-120.89428137686932,"latSpan":0.07790369102457362,"lonSpan":0.12655325840505327},{"id":91,"ava_id":"santa_maria_valley","name":"Santa Maria Valley","state":"California","created":"1981-09-04","latitude":34.90275515865258,"longitude":-120.28306549970233,"latSpan":0.24996713067287146,"lonSpan":0.30196385096336087},{"id":92,"ava_id":"dunnigan_hills","name":"Dunnigan Hills","state":"California","created":"1993-06-14","latitude":38.80307425067298,"longitude":-121.93910607412994,"latSpan":0.23953551802426887,"lonSpan":0.2465239854932122},{"id":93,"ava_id":"chalone","name":"Chalone","state":"California","created":"1982-07-14","latitude":36.473496609147816,"longitude":-121.25114438603529,"latSpan":0.059048282212437186,"lonSpan":0.09021086186038474},{"id":94,"ava_id":"santa_lucia_highlands","name":"Santa Lucia Highlands","state":"California","created":"1992-06-15","latitude":36.41886949782797,"longitude":-121.43085606176129,"latSpan":0.2093791807430847,"lonSpan":0.19985300345608437},{"id":95,"ava_id":"paso_robles_estrella_district","name":"Paso Robles Estrella District","state":"California","created":"2014-11-10","latitude":35.70799298229687,"longitude":-120.56478362297165,"latSpan":0.1658444561733532,"lonSpan":0.2612416229476793},{"id":96,"ava_id":"el_dorado","name":"El Dorado","state":"California","created":"1983-11-14","latitude":38.75642210820888,"longitude":-120.7757003991868,"latSpan":0.5080743262384289,"lonSpan":0.5988526661272857},{"id":97,"ava_id":"covelo","name":"Covelo","state":"California","created":"2006-03-20","latitude":39.79546193992418,"longitude":-123.22774702291841,"latSpan":0.14405474149374697,"lonSpan":0.15351337838305312},{"id":98,"ava_id":"capay_valley","name":"Capay Valley","state":"California","created":"2003-02-18","latitude":38.793814732488286,"longitude":-122.229656700615,"latSpan":0.26254416438511186,"lonSpan":0.3863206827772956},{"id":99,"ava_id":"wild_horse_valley","name":"Wild Horse Valley","state":"California","created":"1988-12-30","latitude":38.2962826,"longitude":-122.19884060000001,"latSpan":0.0766303999999991,"lonSpan":0.035945200000000455},{"id":100,"ava_id":"northern_sonoma","name":"Northern Sonoma","state":"California","created":"1985-06-17","latitude":38.576662538107925,"longitude":-122.87791241923142,"latSpan":0.5522079573163481,"lonSpan":0.50931335451655},{"id":101,"ava_id":"antelope_valley_of_the_california_high_desert","name":"Antelope Valley of the California High Desert","state":"California","created":"2011-06-23","latitude":34.737978897435426,"longitude":-118.15939636103144,"latSpan":0.472786968424316,"lonSpan":0.8568087684611925},{"id":102,"ava_id":"california_shenandoah_valley","name":"California Shenandoah Valley","state":"California","created":"1983-01-27","latitude":38.52552072257939,"longitude":-120.80007007266852,"latSpan":0.08684724197373583,"lonSpan":0.09807106229757778},{"id":103,"ava_id":"san_ysidro_district","name":"San Ysidro District","state":"California","created":"1990-12-17","latitude":37.00760167542809,"longitude":-121.49091004124243,"latSpan":0.048752610205021085,"lonSpan":0.05014808705186624},{"id":104,"ava_id":"san_lucas","name":"San Lucas","state":"California","created":"1987-03-02","latitude":36.072752105718976,"longitude":-120.97732330751504,"latSpan":0.14117988483039312,"lonSpan":0.1811702360112264},{"id":105,"ava_id":"west_sonoma_coast","name":"West Sonoma Coast","state":"California","created":"2022-05-23","latitude":38.55704622252817,"longitude":-123.18348725833715,"latSpan":0.44375855494364913,"lonSpan":0.7005336833257161},{"id":106,"ava_id":"dos_rios","name":"Dos Rios","state":"California","created":"2005-11-14","latitude":39.737319656559855,"longitude":-123.34529204636628,"latSpan":0.1327282511936687,"lonSpan":0.15581799190465517},{"id":107,"ava_id":"sloughhouse","name":"Sloughhouse","state":"California","created":"2006-08-16","latitude":38.44208342052623,"longitude":-121.16383904638064,"latSpan":0.2623147247091637,"lonSpan":0.27359001449596576},{"id":108,"ava_id":"napa_valley","name":"Napa Valley","state":"California","created":"1981-02-27","latitude":38.4616623,"longitude":-122.35407475,"latSpan":0.613338799999994,"lonSpan":0.5853573000000125},{"id":109,"ava_id":"ramona_valley","name":"Ramona Valley","state":"California","created":"2006-01-06","latitude":33.021942418108495,"longitude":-116.84943059069771,"latSpan":0.19264315521675002,"lonSpan":0.27874895325555826},{"id":110,"ava_id":"cienega_valley","name":"Cienega Valley","state":"California","created":"1982-09-20","latitude":36.71736715230263,"longitude":-121.36129845561787,"latSpan":0.08202430365989954,"lonSpan":0.10152408125387069},{"id":111,"ava_id":"santa_clara_valley","name":"Santa Clara Valley","state":"California","created":"1989-04-27","latitude":37.249363581246705,"longitude":-121.78083595685776,"latSpan":0.6467306112634219,"lonSpan":0.8436668196697497},{"id":112,"ava_id":"cole_ranch","name":"Cole Ranch","state":"California","created":"1983-05-16","latitude":39.060581107860415,"longitude":-123.22438385266416,"latSpan":0.009855377889444128,"lonSpan":0.021236782702146684},{"id":113,"ava_id":"alisos_canyon","name":"Alisos Canyon","state":"California","created":"2020-07-28","latitude":34.7505583957026,"longitude":-120.19879655765459,"latSpan":0.0331939511898085,"lonSpan":0.09043230305850614},{"id":114,"ava_id":"sierra_foothills","name":"Sierra Foothills","state":"California","created":"1987-12-18","latitude":38.318479826583705,"longitude":-120.5373897166687,"latSpan":2.2733807547700167,"lonSpan":1.628209856152722},{"id":115,"ava_id":"paso_robles","name":"Paso Robles","state":"California","created":"1983-11-03","latitude":35.55417236335539,"longitude":-120.57054543283952,"latSpan":0.47636427910482126,"lonSpan":0.7511891358903426},{"id":116,"ava_id":"templeton_gap_district","name":"Templeton Gap District","state":"California","created":"2014-11-10","latitude":35.56244934107726,"longitude":-120.72609069610957,"latSpan":0.10582040325144249,"lonSpan":0.16818576205345437},{"id":117,"ava_id":"big_valley_district-lake_county","name":"Big Valley District-Lake County","state":"California","created":"2013-11-01","latitude":38.996020261326365,"longitude":-122.85787016407428,"latSpan":0.07736726892932921,"lonSpan":0.10460070988482073},{"id":118,"ava_id":"santa_ynez_valley","name":"Santa Ynez Valley","state":"California","created":"1983-05-16","latitude":34.64900185967082,"longitude":-120.18561392202622,"latSpan":0.25127384666644303,"lonSpan":0.4726933548290333},{"id":119,"ava_id":"salado_creek","name":"Salado Creek","state":"California","created":"2004-08-30","latitude":37.42656350327658,"longitude":-121.1463593429497,"latSpan":0.06277604788068203,"lonSpan":0.05100213839777723},{"id":120,"ava_id":"chiles_valley","name":"Chiles Valley","state":"California","created":"1999-04-19","latitude":38.54652494509184,"longitude":-122.34043358510819,"latSpan":0.09529222538697013,"lonSpan":0.13764693768968073},{"id":121,"ava_id":"mendocino_ridge","name":"Mendocino Ridge","state":"California","created":"1997-10-27","latitude":38.9974992,"longitude":-123.5178595,"latSpan":0.2596341999999936,"lonSpan":0.35196959999998967},{"id":122,"ava_id":"moon_mountain_district_sonoma_county","name":"Moon Mountain District Sonoma County","state":"California","created":"2013-11-01","latitude":38.356793978380736,"longitude":-122.46849317880265,"latSpan":0.1404546862511964,"lonSpan":0.14769315886162815},{"id":123,"ava_id":"lodi","name":"Lodi","state":"California","created":"1986-03-17","latitude":38.25140343936769,"longitude":-121.21249600167269,"latSpan":0.643674687026234,"lonSpan":0.5722927977715955},{"id":124,"ava_id":"fort_ross-seaview","name":"Fort Ross-Seaview","state":"California","created":"2011-12-14","latitude":38.5678416,"longitude":-123.2518211,"latSpan":0.15980679999999836,"lonSpan":0.19439979999999935},{"id":125,"ava_id":"north_yuba","name":"North Yuba","state":"California","created":"1985-08-30","latitude":39.357309418745444,"longitude":-121.25070515722481,"latSpan":0.1546762213735704,"lonSpan":0.12443981529423809},{"id":126,"ava_id":"sta._rita_hills","name":"Sta. Rita Hills","state":"California","created":"2001-07-30","latitude":34.63738497462316,"longitude":-120.32711693319125,"latSpan":0.12384666517731802,"lonSpan":0.19807215594994432},{"id":127,"ava_id":"mendocino","name":"Mendocino","state":"California","created":"1984-07-16","latitude":39.102005110311495,"longitude":-123.31984495321169,"latSpan":0.5272454632547934,"lonSpan":0.6301942098572084},{"id":128,"ava_id":"los_olivos_district","name":"Los Olivos District","state":"California","created":"2016-02-22","latitude":34.634103718579034,"longitude":-120.09274108901893,"latSpan":0.11276853844620405,"lonSpan":0.12466669294380495},{"id":129,"ava_id":"river_junction","name":"River Junction","state":"California","created":"2001-07-09","latitude":37.675875537362685,"longitude":-121.24275700756914,"latSpan":0.02504507999301353,"lonSpan":0.042569046569653324},{"id":130,"ava_id":"madera","name":"Madera","state":"California","created":"1985-01-07","latitude":36.969853,"longitude":-120.11801274999999,"latSpan":0.41344159999999874,"lonSpan":0.8532754999999952},{"id":131,"ava_id":"lamorinda","name":"Lamorinda","state":"California","created":"2016-03-25","latitude":37.870626351671525,"longitude":-122.14159196729412,"latSpan":0.13474439426751417,"lonSpan":0.16066643069400754},{"id":132,"ava_id":"red_hills_lake_county","name":"Red Hills Lake County","state":"California","created":"2004-09-10","latitude":38.913268696188524,"longitude":-122.71637173768701,"latSpan":0.10942218776796864,"lonSpan":0.2071766567529636},{"id":133,"ava_id":"clarksburg","name":"Clarksburg","state":"California","created":"1984-02-22","latitude":38.33801857985379,"longitude":-121.5637907578624,"latSpan":0.3475716957111814,"lonSpan":0.2194251096588289},{"id":134,"ava_id":"chalk_hill","name":"Chalk Hill","state":"California","created":"1983-11-21","latitude":38.56147786209684,"longitude":-122.75977159259415,"latSpan":0.10694026191868744,"lonSpan":0.172073966567865},{"id":135,"ava_id":"kelsey_bench-lake_county","name":"Kelsey Bench-Lake County","state":"California","created":"2013-11-01","latitude":38.9448676337184,"longitude":-122.8650082433898,"latSpan":0.08179869567484133,"lonSpan":0.11661051336491823},{"id":136,"ava_id":"north_coast","name":"North Coast","state":"California","created":"1983-10-21","latitude":38.76176415826421,"longitude":-122.93740291847257,"latSpan":1.6686359306955723,"lonSpan":1.782221010068767},{"id":137,"ava_id":"potter_valley","name":"Potter Valley","state":"California","created":"1983-11-14","latitude":39.29754516091086,"longitude":-123.08568506676994,"latSpan":0.1358750095016461,"lonSpan":0.13123684081794806},{"id":138,"ava_id":"fountaingrove_district","name":"Fountaingrove District","state":"California","created":"2015-03-20","latitude":38.514193754841244,"longitude":-122.62759481756984,"latSpan":0.11207647883814076,"lonSpan":0.19632906981426856},{"id":139,"ava_id":"san_juan_creek","name":"San Juan Creek","state":"California","created":"2014-11-10","latitude":35.588020456973815,"longitude":-120.319511977937,"latSpan":0.20029761400121515,"lonSpan":0.24990287306636105},{"id":140,"ava_id":"paulsell_valley","name":"Paulsell Valley","state":"California","created":"2022-06-03","latitude":37.73071398590878,"longitude":-120.66329799687126,"latSpan":0.17031050842110318,"lonSpan":0.14303535667545475},{"id":141,"ava_id":"paso_robles_geneseo_district","name":"Paso Robles Geneseo District","state":"California","created":"2014-11-10","latitude":35.61548519415034,"longitude":-120.58751083950665,"latSpan":0.08824130451426981,"lonSpan":0.15334189914119634},{"id":142,"ava_id":"dry_creek_valley","name":"Dry Creek Valley","state":"California","created":"1983-09-06","latitude":38.647509549205225,"longitude":-122.9852612903125,"latSpan":0.20498286304401603,"lonSpan":0.256809580605875},{"id":143,"ava_id":"san_bernabe","name":"San Bernabe","state":"California","created":"2004-08-30","latitude":36.141800595019255,"longitude":-121.0999256869553,"latSpan":0.12404379309988656,"lonSpan":0.1468514762674431},{"id":144,"ava_id":"benmore_valley","name":"Benmore Valley","state":"California","created":"1991-11-18","latitude":39.01023361086976,"longitude":-123.02154143679536,"latSpan":0.0271742421871366,"lonSpan":0.03894776996769167},{"id":145,"ava_id":"leona_valley","name":"Leona Valley","state":"California","created":"2008-11-28","latitude":34.61879799431223,"longitude":-118.29745365692224,"latSpan":0.06679455989838345,"lonSpan":0.15912772308043088},{"id":146,"ava_id":"temecula_valley","name":"Temecula Valley","state":"California","created":"1984-11-23","latitude":33.52509147241173,"longitude":-117.17144707284041,"latSpan":0.16310107860881118,"lonSpan":0.3987024269463433},{"id":147,"ava_id":"san_antonio_valley","name":"San Antonio Valley","state":"California","created":"2006-07-10","latitude":35.93576689014681,"longitude":-121.1065875799249,"latSpan":0.288107655933743,"lonSpan":0.47513600826779623}]},{"id":31,"region":"West_Virginia","ava":[{"id":0,"ava_id":"west_virginia","name":"West Virginia","state":"West Virginia","created":"2009-07-22|2012-04-23|1983-10-07","latitude":38.71079453938444,"longitude":-81.52294030100741,"latSpan":2.5751015796572503,"lonSpan":10.372714604782445},{"id":1,"ava_id":"kanawha_river_valley","name":"Kanawha River Valley","state":"WV","created":"1986-04-08","latitude":38.621863713989256,"longitude":-81.91025497683566,"latSpan":0.5226305722431448,"lonSpan":0.6229160456389877},{"id":2,"ava_id":"shenandoah_valley","name":"Shenandoah Valley","state":"VIrginia|West Virginia","created":"1982-07-30","latitude":38.56972141542424,"longitude":-78.76437173316114,"latSpan":2.1012752060674913,"lonSpan":2.086803504515416},{"id":3,"ava_id":"ohio_river_valley","name":"Ohio River Valley","state":"Indiana|Kentucky|Ohio|West Virginia","created":"1983-10-07","latitude":38.85186766334464,"longitude":-84.28150886885368,"latSpan":2.4846354574062133,"lonSpan":7.624351433664415}]},{"id":32,"region":"New_Mexico","ava":[{"id":0,"ava_id":"mesilla_valley","name":"Mesilla Valley","state":"New Mexico|Texas","created":"1985-02-14","latitude":32.13661961240876,"longitude":-106.72393856001557,"latSpan":0.7050245850369912,"lonSpan":0.4304195944269651},{"id":1,"ava_id":"middle_rio_grande_valley","name":"Middle Rio Grande Valley","state":"New Mexico","created":"1988-03-03","latitude":34.65729515693914,"longitude":-106.67040476876673,"latSpan":1.4824699106815729,"lonSpan":0.5290982233614159},{"id":2,"ava_id":"mimbres_valley","name":"Mimbres Valley","state":"New Mexico","created":"1985-11-21","latitude":32.33580465006279,"longitude":-107.72470536519174,"latSpan":1.1044571643274246,"lonSpan":0.6470255502121773},{"id":3,"ava_id":"new_mexico","name":"New Mexico","state":"New Mexico","created":"1985-02-14|1985-11-21|1988-03-03","latitude":33.04323980647023,"longitude":-107.03968289799134,"latSpan":3.6149540443808483,"lonSpan":1.642362483211798}]}]},{"id":1,"country":"France","regions":[{"id":0,"region":"France","ava":[{"id":0,"ava_id":"france","name":"France","state":"France","created":"","latitude":46.227638,"longitude":2.213749,"latSpan":8.761880380480306,"lonSpan":12.985206711999922}]},{"id":1,"region":"Burgundy","ava":[{"id":0,"ava_id":"burgundy","name":"Burgundy","state":"Burgundy","created":"","latitude":47.277665,"longitude":4.994325,"latSpan":2.2434499999999957,"lonSpan":4.2982700000000005},{"id":1,"ava_id":"volnay","name":"Volnay","state":"Burgundy","created":"","latitude":46.9161505,"longitude":4.6951215,"latSpan":0.021574999999998568,"lonSpan":0.053264999999999674},{"id":2,"ava_id":"santenay","name":"Santenay","state":"Burgundy","created":"","latitude":46.9161505,"longitude":4.6951215,"latSpan":0.021574999999998568,"lonSpan":0.053264999999999674},{"id":3,"ava_id":"meursault","name":"Meursault","state":"Burgundy","created":"","latitude":46.9737195,"longitude":4.7634675,"latSpan":0.03513900000000092,"lonSpan":0.056390999999999636}]},{"id":2,"region":"Bordeaux","ava":[{"id":0,"ava_id":"lussac-st._\u00e9milion","name":"Lussac-St. \u00c9milion","state":"Bordeaux","created":"","latitude":44.96830991145846,"longitude":-0.08772232904060351,"latSpan":0.06299579885219231,"lonSpan":0.085119954578273},{"id":1,"ava_id":"st._julien","name":"St. Julien","state":"Bordeaux","created":"","latitude":45.14011081358009,"longitude":-0.8248012036859584,"latSpan":0.13651438715191944,"lonSpan":0.25348840350341495},{"id":2,"ava_id":"c\u00f4tes_de_bourg","name":"C\u00f4tes de Bourg","state":"Bordeaux","created":"","latitude":45.06293904022954,"longitude":-0.556817719505283,"latSpan":0.10863530032229818,"lonSpan":0.17376965940243805},{"id":3,"ava_id":"st._estephe","name":"St. Est\u00e8phe","state":"Bordeaux","created":"","latitude":45.253162925008155,"longitude":-0.7810885531400029,"latSpan":0.0616085018703032,"lonSpan":0.07012949793758605},{"id":4,"ava_id":"pomerol","name":"Pomerol","state":"Bordeaux","created":"","latitude":44.91257264711783,"longitude":-0.2187558964424535,"latSpan":0.07913911831544596,"lonSpan":0.08885443087741501},{"id":5,"ava_id":"pessac-l\u00e9ognan","name":"Pessac-L\u00e9ognan","state":"Bordeaux","created":"","latitude":44.77324887785187,"longitude":-0.6184792035013525,"latSpan":0.17907138638148723,"lonSpan":0.28062075901884703},{"id":6,"ava_id":"blaye_c\u00f4tes_de_bordeaux","name":"Blaye C\u00f4tes de Bordeaux","state":"Bordeaux","created":"","latitude":45.193886629947976,"longitude":-0.505595332847146,"latSpan":0.3013633312575763,"lonSpan":0.422380749902254},{"id":7,"ava_id":"st._emilion_grand_cru","name":"St. \u00c9milion Grand Cru","state":"Bordeaux","created":"","latitude":44.89231310327772,"longitude":-0.165406299191521,"latSpan":0.11965820599566257,"lonSpan":0.19555362537928},{"id":8,"ava_id":"cr\u00e9mant_de_bourgogne","name":"Cr\u00e9mant de Bourgogne","state":"Bordeaux","created":"","latitude":44.948898400325234,"longitude":-0.4272350660345795,"latSpan":1.2496878274134957,"lonSpan":1.4837696329992591},{"id":9,"ava_id":"sainte_foy_bordeaux","name":"Sainte Foy Bordeaux","state":"Bordeaux","created":"","latitude":44.7865952612528,"longitude":0.169190542157403,"latSpan":0.1722561981253321,"lonSpan":0.290918416615294},{"id":10,"ava_id":"premi\u00e8res_c\u00f4tes_de_bordeaux","name":"Premi\u00e8res C\u00f4tes de Bordeaux","state":"Bordeaux","created":"","latitude":44.76827642299912,"longitude":-0.1765594224330355,"latSpan":0.43979290969161156,"lonSpan":0.719313477176257},{"id":11,"ava_id":"lalande_de_pomerol","name":"Lalande de Pomerol","state":"Bordeaux","created":"","latitude":44.95035871983032,"longitude":-0.19139631207590302,"latSpan":0.03800708085751836,"lonSpan":0.080595409986748},{"id":12,"ava_id":"blaye","name":"Blaye","state":"Bordeaux","created":"","latitude":45.193886629947976,"longitude":-0.505595332847146,"latSpan":0.3013633312575763,"lonSpan":0.422380749902254},{"id":13,"ava_id":"m\u00e9doc","name":"M\u00e9doc","state":"Bordeaux","created":"","latitude":45.210386754960766,"longitude":-0.8563964316532935,"latSpan":0.7267111181424397,"lonSpan":0.625446901761831},{"id":14,"ava_id":"moulis_en_m\u00e9doc","name":"Moulis en M\u00e9doc","state":"Bordeaux","created":"","latitude":45.054627704725426,"longitude":-0.7969441772308266,"latSpan":0.0754546195705359,"lonSpan":0.13608973497851695},{"id":15,"ava_id":"bordeaux","name":"Bordeaux","state":"Bordeaux","created":"","latitude":44.948898400325234,"longitude":-0.4272350660345795,"latSpan":1.2496878274134957,"lonSpan":1.4837696329992591},{"id":16,"ava_id":"pauillac","name":"Pauillac","state":"Bordeaux","created":"","latitude":45.1983665360094,"longitude":-0.7662482049832919,"latSpan":0.06329808661025282,"lonSpan":0.062271035832108024},{"id":17,"ava_id":"sauternes","name":"Sauternes","state":"Bordeaux","created":"","latitude":44.56969603167332,"longitude":-0.3179767958670795,"latSpan":0.12447752973862691,"lonSpan":0.11273129180319896},{"id":18,"ava_id":"cerons","name":"Cerons","state":"Bordeaux","created":"","latitude":44.62110794097984,"longitude":-0.371978614930047,"latSpan":0.08919911089571997,"lonSpan":0.102917466818778},{"id":19,"ava_id":"margaux","name":"Margaux","state":"Bordeaux","created":"","latitude":45.01649110790207,"longitude":-0.686376253210609,"latSpan":0.11995181903893837,"lonSpan":0.13638393323406595},{"id":20,"ava_id":"entre-deux-mers","name":"Entre-Deux-Mers","state":"Bordeaux","created":"","latitude":44.76827642299912,"longitude":-0.1765594224330355,"latSpan":0.43979290969161156,"lonSpan":0.719313477176257},{"id":21,"ava_id":"c\u00f4tes_de_bordeaux_saint_macaire","name":"C\u00f4tes de Bordeaux Saint Macaire","state":"Bordeaux","created":"","latitude":44.60683632569359,"longitude":-0.17759675200737252,"latSpan":0.0988393245097896,"lonSpan":0.148352097932861},{"id":22,"ava_id":"graves","name":"Graves","state":"Bordeaux","created":"","latitude":44.685431035665374,"longitude":-0.5049647155176945,"latSpan":0.42571289752725505,"lonSpan":0.6650061860009251},{"id":23,"ava_id":"barsac","name":"Barsac","state":"Bordeaux","created":"","latitude":44.603363090624356,"longitude":-0.32636505906247804,"latSpan":0.05565057375261517,"lonSpan":0.051483128282893975},{"id":24,"ava_id":"canon-fronsac","name":"Canon-Fronsac","state":"Bordeaux","created":"","latitude":44.9218736915849,"longitude":-0.27862092953334,"latSpan":0.06335902314913255,"lonSpan":0.073266953898902},{"id":25,"ava_id":"c\u00f4tes_de_blaye","name":"C\u00f4tes de Blaye","state":"Bordeaux","created":"","latitude":45.193886629947976,"longitude":-0.505595332847146,"latSpan":0.3013633312575763,"lonSpan":0.422380749902254},{"id":26,"ava_id":"fronsac","name":"Fronsac","state":"Bordeaux","created":"","latitude":44.95231126051691,"longitude":-0.2949393568749315,"latSpan":0.1242654145785238,"lonSpan":0.10590380858208501},{"id":27,"ava_id":"cotes_de_bordeaux","name":"Cotes de Bordeaux","state":"Bordeaux","created":"","latitude":44.94942568003296,"longitude":-0.015444734679867,"latSpan":0.048764590445280476,"lonSpan":0.067046479882488},{"id":28,"ava_id":"loupiac","name":"Loupiac","state":"Bordeaux","created":"","latitude":44.62572774557135,"longitude":-0.285724761884393,"latSpan":0.046997538918198245,"lonSpan":0.05508496271679397},{"id":29,"ava_id":"puisseguin-st._\u00e9milion","name":"Puisseguin-Saint-\u00c9milion","state":"Bordeaux","created":"","latitude":44.930549696915875,"longitude":-0.063151519557838,"latSpan":0.0484766292208505,"lonSpan":0.06985991352082199},{"id":30,"ava_id":"listrac-m\u00e9doc","name":"Listrac-M\u00e9doc","state":"Bordeaux","created":"","latitude":45.0699606966984,"longitude":-0.826955408653041,"latSpan":0.08737159762965518,"lonSpan":0.16895361150121602}]}]},{"id":2,"country":"New_Zealand","regions":[{"id":0,"region":"New_Zealand","ava":[{"id":0,"ava_id":"new_zealand","name":"New_Zealand","state":"New_Zealand","created":"","latitude":-40.464689534399916,"longitude":101.92726352968008,"latSpan":44.05708645000015,"lonSpan":356.8019205730001}]}]},{"id":3,"country":"Belgium","regions":[{"id":0,"region":"Belgium","ava":[{"id":0,"ava_id":"belgium","name":"Belgium","state":"Belgium","created":"","latitude":50.503887,"longitude":4.469936,"latSpan":2.0010148100001004,"lonSpan":3.8527252593096084}]}]},{"id":4,"country":"Spain","regions":[{"id":0,"region":"Castilla-La_Mancha","ava":[{"id":0,"ava_id":"castilla-la_mancha","name":"Castilla-La Mancha","state":"Castilla-La_Mancha","created":"","latitude":40.154048,"longitude":-3.2670735349999998,"latSpan":3.3051949999999977,"lonSpan":4.4903904599999995}]},{"id":1,"region":"Spain","ava":[{"id":0,"ava_id":"spain","name":"Spain","state":"Spain","created":"","latitude":40.463667,"longitude":-3.74922,"latSpan":7.786987304999904,"lonSpan":12.609700521000008}]},{"id":2,"region":"La_Rioja","ava":[{"id":0,"ava_id":"rioja","name":"Rioja","state":"La Rioja","created":"","latitude":42.2816495,"longitude":-2.406486,"latSpan":0.7252309999999937,"lonSpan":1.45557}]}]},{"id":5,"country":"Australia","regions":[{"id":0,"region":"Queensland","ava":[{"id":0,"ava_id":"granite_belt","name":"Granite Belt","state":"Queensland","created":"2002-03-25","latitude":-28.71763,"longitude":151.9142835,"latSpan":0.4913799999999995,"lonSpan":0.3235430000000008},{"id":1,"ava_id":"south_burnett","name":"South Burnett","state":"Queensland","created":"2000-12-08","latitude":-26.465023,"longitude":151.7053645,"latSpan":1.0672479999999993,"lonSpan":1.029245000000003},{"id":2,"ava_id":"queensland","name":"queensland","state":"Queensland","created":"2002-03-25","latitude":-27.5913265,"longitude":151.809824,"latSpan":3.0319210000000005,"lonSpan":1.029245000000003}]},{"id":1,"region":"Western_Australia","ava":[{"id":0,"ava_id":"albany","name":"Albany","state":"Western Australia","created":"1999-07-28","latitude":-34.9648995,"longitude":117.795344,"latSpan":0.33985900000000413,"lonSpan":0.603746000000001},{"id":1,"ava_id":"great_southern","name":"Great Southern","state":"Western Australia","created":"1996-10-30","latitude":-34.633484499999994,"longitude":117.7432135,"latSpan":1.002715000000002,"lonSpan":2.343089000000006},{"id":2,"ava_id":"perth_hills","name":"Perth Hills","state":"Western Australia","created":"1999-03-25","latitude":-31.913592,"longitude":116.1640455,"latSpan":1.1711220000000004,"lonSpan":0.3494790000000023},{"id":3,"ava_id":"peel","name":"Peel","state":"Western Australia","created":"2001-09-04","latitude":-32.6867885,"longitude":116.2619645,"latSpan":0.9650029999999958,"lonSpan":1.3103770000000026},{"id":4,"ava_id":"pemberton","name":"Pemberton","state":"Western Australia","created":"2006-02-14","latitude":-34.53508,"longitude":116.0481895,"latSpan":0.5677199999999942,"lonSpan":0.6111930000000001},{"id":5,"ava_id":"porongurup","name":"Porongurup","state":"Western Australia","created":"1999-07-28","latitude":-34.661170999999996,"longitude":117.92957949999999,"latSpan":0.1635300000000015,"lonSpan":0.31596299999999644},{"id":6,"ava_id":"swan_district","name":"Swan District","state":"Western Australia","created":"1998-12-10","latitude":-31.603873,"longitude":115.804191,"latSpan":0.9492599999999989,"lonSpan":0.5505059999999986},{"id":7,"ava_id":"frankland_river","name":"Frankland River","state":"Western Australia","created":"2000-08-24","latitude":-34.3714455,"longitude":117.001672,"latSpan":0.4060010000000034,"lonSpan":0.43580800000000863},{"id":8,"ava_id":"mount_barker","name":"Mount Barker","state":"Western Australia","created":"1997-08-15","latitude":-34.637189500000005,"longitude":117.5474915,"latSpan":0.32332099999999997,"lonSpan":0.43852700000000766},{"id":9,"ava_id":"greater_perth","name":"Greater Perth","state":"Western Australia","created":"1996-05-01","latitude":-31.5086965,"longitude":115.703528,"latSpan":2.868373000000002,"lonSpan":1.423252000000005},{"id":10,"ava_id":"blackwood_valley","name":"Blackwood Valley","state":"Western Australia","created":"1998-12-10","latitude":-33.913296,"longitude":116.18231499999999,"latSpan":0.7146739999999951,"lonSpan":1.2383779999999973},{"id":11,"ava_id":"west_australian_south_east_coastal","name":"West Australian South East Coastal","state":"Western Australia","created":"1996-05-01","latitude":-33.5533715,"longitude":121.0493045,"latSpan":1.9765709999999999,"lonSpan":6.389983000000001},{"id":12,"ava_id":"swan_valley","name":"Swan Valley","state":"Western Australia","created":"2003-01-06","latitude":-31.823311500000003,"longitude":116.01956799999999,"latSpan":0.14458099999999874,"lonSpan":0.1197739999999925},{"id":13,"ava_id":"denmark","name":"Denmark","state":"Western Australia","created":"2003-01-06","latitude":-34.960103000000004,"longitude":117.115088,"latSpan":0.25969199999999404,"lonSpan":0.7602599999999882},{"id":14,"ava_id":"eastern_plains,_inland_and_north_of_western_australia","name":"Eastern Plains, Inland and North of Western Australia","state":"Western Australia","created":"1996-05-01","latitude":-23.772964,"longitude":121.0790715,"latSpan":20.063492,"lonSpan":15.845580999999981},{"id":15,"ava_id":"margaret_river","name":"Margaret River","state":"Western Australia","created":"1996-10-30","latitude":-33.95327399999999,"longitude":115.138069,"latSpan":0.8469440000000006,"lonSpan":0.326831999999996},{"id":16,"ava_id":"geographe","name":"Geographe","state":"Western Australia","created":"1999-03-25","latitude":-33.407737999999995,"longitude":115.8146175,"latSpan":1.0616819999999976,"lonSpan":1.026422999999994},{"id":17,"ava_id":"south_west_australia","name":"South West Australia","state":"Western Australia","created":"1996-05-01","latitude":-34.028376,"longitude":116.8781985,"latSpan":2.212906000000004,"lonSpan":3.807040999999998},{"id":18,"ava_id":"central_western_australia","name":"Central Western Australia","state":"Western Australia","created":"1996-05-01","latitude":-32.210415999999995,"longitude":116.9325095,"latSpan":4.094918,"lonSpan":2.112661000000003},{"id":19,"ava_id":"western_australia","name":"Western Australia","state":"Western Australia","created":"1994-01-26","latitude":-31.014764800000002,"longitude":118.3285224,"latSpan":21.393611000000003,"lonSpan":15.845580999999981},{"id":20,"ava_id":"manjimup","name":"Manjimup","state":"Western Australia","created":"2006-02-14","latitude":-34.3560815,"longitude":116.34309400000001,"latSpan":0.45359499999999997,"lonSpan":0.8527940000000029}]},{"id":2,"region":"Victoria","ava":[{"id":0,"ava_id":"sunbury","name":"Sunbury","state":"Victoria","created":"1998-12-10","latitude":-37.637591,"longitude":144.703204,"latSpan":0.37291199999999947,"lonSpan":0.5396319999999832},{"id":1,"ava_id":"grampians","name":"Grampians","state":"Victoria","created":"1997-06-16","latitude":-37.325203,"longitude":142.71387299999998,"latSpan":1.1352460000000022,"lonSpan":1.18553},{"id":2,"ava_id":"upper_goulburn","name":"Upper Goulburn","state":"Victoria","created":"2003-10-14","latitude":-37.1291425,"longitude":145.7541565,"latSpan":0.7191609999999997,"lonSpan":1.369686999999999},{"id":3,"ava_id":"alpine_valleys","name":"Alpine Valleys","state":"Victoria","created":"1999-11-29","latitude":-36.605965499999996,"longitude":146.8788895,"latSpan":0.7536169999999984,"lonSpan":0.8539469999999767},{"id":4,"ava_id":"great_western","name":"Great Western","state":"Victoria","created":"2007-04-05","latitude":-37.224095500000004,"longitude":142.818989,"latSpan":0.25295100000000303,"lonSpan":0.28458600000001866},{"id":5,"ava_id":"port_phillip","name":"Port Phillip","state":"Victoria","created":"1996-05-01","latitude":-37.912525,"longitude":144.9400885,"latSpan":1.6267479999999992,"lonSpan":2.6629009999999766},{"id":6,"ava_id":"geelong","name":"Geelong","state":"Victoria","created":"1996-06-11","latitude":-38.105328,"longitude":144.316288,"latSpan":0.6191060000000022,"lonSpan":0.8078579999999818},{"id":7,"ava_id":"Gippsland","name":"Gippsland","state":"Victoria","created":"1996-05-01","latitude":-37.8726485,"longitude":147.66987849999998,"latSpan":2.5280210000000025,"lonSpan":4.6132510000000195},{"id":8,"ava_id":"beechworth","name":"Beechworth","state":"Victoria","created":"2000-12-08","latitude":-36.355385,"longitude":146.677498,"latSpan":0.2076940000000036,"lonSpan":0.2687880000000007},{"id":9,"ava_id":"strathbogie_ranges","name":"Strathbogie Ranges","state":"Victoria","created":"2002-03-25","latitude":-36.865082,"longitude":145.58984099999998,"latSpan":0.5355300000000014,"lonSpan":0.7749120000000005},{"id":10,"ava_id":"glenrowan","name":"Glenrowan","state":"Victoria","created":"2003-10-14","latitude":-36.385152000000005,"longitude":146.07980049999998,"latSpan":0.45700000000000074,"lonSpan":0.4976949999999931},{"id":11,"ava_id":"murray_darling","name":"Murray Darling","state":"Victoria","created":"1997-06-16","latitude":-34.184918,"longitude":142.5024085,"latSpan":1.6234859999999998,"lonSpan":3.0021830000000023},{"id":12,"ava_id":"henty","name":"Henty","state":"Victoria","created":"2000-08-24","latitude":-37.7924595,"longitude":141.83815049999998,"latSpan":1.2809170000000023,"lonSpan":1.7447209999999984},{"id":13,"ava_id":"heathcote","name":"Heathcote","state":"Victoria","created":"2002-08-21","latitude":-36.7450275,"longitude":144.68301400000001,"latSpan":0.7469849999999951,"lonSpan":0.529500000000013},{"id":14,"ava_id":"north_east_victoria","name":"North East Victoria","state":"Victoria","created":"1996-05-01","latitude":-36.606101499999994,"longitude":146.998083,"latSpan":1.3551390000000012,"lonSpan":2.445184000000012},{"id":15,"ava_id":"victoria","name":"Victoria","state":"Victoria","created":"1994-01-26","latitude":-36.61350242857143,"longitude":144.62011600000002,"latSpan":5.763483999999998,"lonSpan":9.014814999999999},{"id":16,"ava_id":"rutherglen","name":"Rutherglen","state":"Victoria","created":"1997-09-02","latitude":-36.1109505,"longitude":146.4984435,"latSpan":0.30557300000000254,"lonSpan":0.646616999999992},{"id":17,"ava_id":"swan_hill","name":"Swan Hill","state":"Victoria","created":"1996-06-11","latitude":-35.2629655,"longitude":143.5108565,"latSpan":0.8095550000000031,"lonSpan":0.7250830000000121},{"id":18,"ava_id":"bendigo","name":"Bendigo","state":"Victoria","created":"2001-06-27","latitude":-36.857921000000005,"longitude":144.0624525,"latSpan":0.8196399999999997,"lonSpan":1.2055609999999888},{"id":19,"ava_id":"goulburn_valley","name":"Goulburn Valley","state":"Victoria","created":"1999-11-29","latitude":-36.504345,"longitude":145.37286699999999,"latSpan":1.4046919999999972,"lonSpan":1.3991240000000005},{"id":20,"ava_id":"nagambie_lakes","name":"Nagambie Lakes","state":"Victoria","created":"2001-04-09","latitude":-36.8048105,"longitude":145.13431400000002,"latSpan":0.21549300000000216,"lonSpan":0.16747399999999857},{"id":21,"ava_id":"western_victoria","name":"Western Victoria","state":"Victoria","created":"1996-05-01","latitude":-37.6315145,"longitude":142.5593245,"latSpan":2.452331000000001,"lonSpan":3.1870549999999866},{"id":22,"ava_id":"macedon_ranges","name":"Macedon Ranges","state":"Victoria","created":"2002-08-21","latitude":-37.3203355,"longitude":144.47488049999998,"latSpan":0.4734809999999996,"lonSpan":0.862290999999999},{"id":23,"ava_id":"king_valley","name":"King Valley","state":"Victoria","created":"2007-10-12","latitude":-36.669433999999995,"longitude":146.4360035,"latSpan":0.6266800000000003,"lonSpan":0.47264300000000503},{"id":24,"ava_id":"central_victoria","name":"Central Victoria","state":"Victoria","created":"1996-05-01","latitude":-36.715110499999994,"longitude":144.981115,"latSpan":1.826236999999999,"lonSpan":3.3318299999999965},{"id":25,"ava_id":"pyrenees","name":"Pyrenees","state":"Victoria","created":"2000-06-29","latitude":-36.9863275,"longitude":143.34063700000002,"latSpan":0.739327000000003,"lonSpan":0.6834300000000155},{"id":26,"ava_id":"yarra_valley","name":"Yarra Valley","state":"Victoria","created":"1996-10-30","latitude":-37.7110605,"longitude":145.623287,"latSpan":0.5347629999999981,"lonSpan":1.0796760000000063},{"id":27,"ava_id":"mornington_peninsula","name":"Mornington Peninsula","state":"Victoria","created":"1997-03-18","latitude":-38.330884499999996,"longitude":144.95705249999997,"latSpan":0.33696699999999424,"lonSpan":0.6112789999999961}]},{"id":3,"region":"Australia","ava":[{"id":0,"ava_id":"australia","name":"Australia","state":"Australia","created":"","latitude":-25.274398,"longitude":133.775136,"latSpan":45.51025390600012,"lonSpan":46.18701171800001}]},{"id":4,"region":"South_Eastern","ava":[{"id":0,"ava_id":"south_eastern","name":"South Eastern","state":"South Eastern","created":"1996-05-01","latitude":-34.56221864285714,"longitude":147.33929139285715,"latSpan":10.979652000000002,"lonSpan":12.676912999999985}]},{"id":5,"region":"New_South_Wales","ava":[{"id":0,"ava_id":"riverina","name":"Riverina","state":"New South Wales","created":"1998-11-12","latitude":-34.3291935,"longitude":145.81346000000002,"latSpan":2.683841000000001,"lonSpan":3.5421359999999993},{"id":1,"ava_id":"gundagai","name":"Gundagai","state":"New South Wales","created":"2002-03-25","latitude":-34.9720495,"longitude":147.8847885,"latSpan":1.0493250000000032,"lonSpan":1.3603769999999997},{"id":2,"ava_id":"canberra_district","name":"Canberra District","state":"New South Wales","created":"1998-02-09","latitude":-34.996679,"longitude":149.028659,"latSpan":1.175526000000005,"lonSpan":1.0127999999999986},{"id":3,"ava_id":"hastings_river","name":"Hastings River","state":"New South Wales","created":"1999-03-25","latitude":-31.484686,"longitude":152.728298,"latSpan":0.49843400000000315,"lonSpan":0.4913219999999967},{"id":4,"ava_id":"hunter","name":"Hunter","state":"New South Wales","created":"1997-03-18","latitude":-32.370973,"longitude":150.7536425,"latSpan":1.5359580000000044,"lonSpan":2.1577210000000093},{"id":5,"ava_id":"cowra","name":"Cowra","state":"New South Wales","created":"1998-10-16","latitude":-33.742906000000005,"longitude":148.6503405,"latSpan":0.6315039999999996,"lonSpan":0.3981709999999907},{"id":6,"ava_id":"northern_slopes","name":"Northern Slopes","state":"New South Wales","created":"1996-05-01","latitude":-30.276864500000002,"longitude":150.62845,"latSpan":4.055261000000002,"lonSpan":4.005616000000003},{"id":7,"ava_id":"tumbarumba","name":"Tumbarumba","state":"New South Wales","created":"1998-12-10","latitude":-35.900081,"longitude":147.92810100000003,"latSpan":0.8910020000000003,"lonSpan":0.6705800000000011},{"id":8,"ava_id":"southern_new_south_wales","name":"New South Wales","state":"Southern New South Wales","created":"1996-05-01","latitude":-35.5755415,"longitude":149.009703,"latSpan":3.3744590000000017,"lonSpan":2.647666000000015},{"id":9,"ava_id":"western_plains","name":"Western Plains","state":"New South Wales","created":"1996-05-01","latitude":-30.973641999999998,"longitude":145.6798635,"latSpan":4.872995999999997,"lonSpan":9.361154999999997},{"id":10,"ava_id":"new_south_wales","name":"New South Wales","state":"New South Wales","created":"1994-01-26","latitude":-32.72018275,"longitude":149.11395950000002,"latSpan":9.348260000000003,"lonSpan":12.63931599999998},{"id":11,"ava_id":"perricoota","name":"Perricoota","state":"New South Wales","created":"1999-03-25","latitude":-36.007257499999994,"longitude":144.7654405,"latSpan":0.24529700000000076,"lonSpan":0.44330700000000434},{"id":12,"ava_id":"broke_fordwich","name":"Broke Fordwich","state":"New South Wales","created":"1997-09-02","latitude":-32.760021300000005,"longitude":151.03866965,"latSpan":0.38779799999999653,"lonSpan":0.3478637000000049},{"id":13,"ava_id":"hilltops","name":"Hilltops","state":"New South Wales","created":"1998-02-09","latitude":-34.4400975,"longitude":148.397168,"latSpan":0.7665410000000037,"lonSpan":0.693965999999989},{"id":14,"ava_id":"murray_darling","name":"Murray Darling","state":"New South Wales","created":"1997-06-16","latitude":-34.184918,"longitude":142.5024085,"latSpan":1.6234859999999998,"lonSpan":3.0021830000000023},{"id":15,"ava_id":"big_rivers","name":"Big Rivers","state":"New South Wales","created":"1995-05-01","latitude":-33.831177499999995,"longitude":144.638337,"latSpan":4.597456999999999,"lonSpan":7.273821999999996},{"id":16,"ava_id":"swan_hill","name":"Swan Hill","state":"New South Wales","created":"1996-06-11","latitude":-35.2629655,"longitude":143.5108565,"latSpan":0.8095550000000031,"lonSpan":0.7250830000000121},{"id":17,"ava_id":"hunter_valley","name":"Hunter Valley","state":"New South Wales","created":"1996-05-01","latitude":-32.3668815,"longitude":150.7959705,"latSpan":1.5443029999999993,"lonSpan":2.245461000000006},{"id":18,"ava_id":"south_coast","name":"South Coast","state":"New South Wales","created":"1996-05-01","latitude":-35.101386500000004,"longitude":150.546988,"latSpan":4.807761000000006,"lonSpan":2.3815119999999865},{"id":19,"ava_id":"new_england_australia","name":"New England Australia","state":"New South Wales","created":"2008-01-23","latitude":-30.130285,"longitude":151.51183650000002,"latSpan":2.526842000000002,"lonSpan":1.4763390000000243},{"id":20,"ava_id":"shoalhaven_coast","name":"Shoalhaven Coast","state":"New South Wales","created":"2002-08-06","latitude":-35.159995499999994,"longitude":150.574511,"latSpan":1.0524449999999987,"lonSpan":0.5818419999999946},{"id":21,"ava_id":"orange","name":"Orange","state":"New South Wales","created":"1997-10-31","latitude":-33.388552000000004,"longitude":149.1076455,"latSpan":0.8476420000000005,"lonSpan":0.6288350000000094},{"id":22,"ava_id":"northern_rivers","name":"Northern Rivers","state":"New South Wales","created":"1996-05-01","latitude":-30.496438,"longitude":152.436926,"latSpan":4.678862000000002,"lonSpan":2.403351999999984},{"id":23,"ava_id":"pokolbin","name":"Pokolbin","state":"New South Wales","created":"2010-07-29","latitude":-32.7657735,"longitude":151.2956765,"latSpan":0.19509299999999996,"lonSpan":0.12559500000000412},{"id":24,"ava_id":"central_ranges","name":"Central Ranges","state":"New South Wales","created":"1996-05-01","latitude":-33.1395305,"longitude":149.17543799999999,"latSpan":2.1326370000000026,"lonSpan":2.88869600000001},{"id":25,"ava_id":"upper_hunter_valley","name":"Upper Hunter Valley","state":"New South Wales","created":"2010-07-29","latitude":-32.110406499999996,"longitude":150.856412,"latSpan":1.0148229999999998,"lonSpan":1.2093800000000101},{"id":26,"ava_id":"mudgee","name":"Mudgee","state":"New South Wales","created":"2000-08-24","latitude":-32.48769,"longitude":149.75948549999998,"latSpan":1.2756900000000009,"lonSpan":1.1825389999999913},{"id":27,"ava_id":"southern_highlands","name":"Southern Highlands","state":"New South Wales","created":"2002-03-25","latitude":-34.490836,"longitude":150.35757,"latSpan":0.5569320000000033,"lonSpan":0.7762239999999849}]},{"id":6,"region":"South_Australia","ava":[{"id":0,"ava_id":"mount_gambier","name":"Mount Gambier","state":"South Australia","created":"2010-12-21","latitude":-37.763036,"longitude":140.66768100000002,"latSpan":0.5968519999999984,"lonSpan":0.6124680000000069},{"id":1,"ava_id":"south_australia","name":"South Australia","state":"South Australia","created":"1994-01-26","latitude":-34.51583576111111,"longitude":138.4312270388889,"latSpan":12.066302999999998,"lonSpan":12.000934},{"id":2,"ava_id":"mclaren_vale","name":"McLaren Vale","state":"South Australia","created":"1997-09-02","latitude":-35.198710500000004,"longitude":138.56609550000002,"latSpan":0.3001429999999985,"lonSpan":0.24926500000000829},{"id":3,"ava_id":"currency_creek","name":"Currency Creek","state":"South Australia","created":"2001-04-09","latitude":-35.4470245,"longitude":138.85247950000002,"latSpan":0.22997900000000016,"lonSpan":0.3907549999999844},{"id":4,"ava_id":"eden_valley","name":"Eden Valley","state":"South Australia","created":"1997-08-15","latitude":-34.591494499999996,"longitude":139.06572849999998,"latSpan":0.36805899999999525,"lonSpan":0.2561550000000068},{"id":5,"ava_id":"barossa_valley","name":"Barossa Valley","state":"South Australia","created":"1997-08-15","latitude":-34.531695,"longitude":138.97393499999998,"latSpan":0.36239600000000394,"lonSpan":0.29812999999998624},{"id":6,"ava_id":"langhorne_creek","name":"Langhorne Creek","state":"South Australia","created":"1998-10-16","latitude":-35.3199885,"longitude":139.03761550000002,"latSpan":0.17114700000000482,"lonSpan":0.2350150000000042},{"id":7,"ava_id":"Fleurieu","name":"Fleurieu","state":"South Australia","created":"1996-12-27","latitude":-35.3161945,"longitude":138.62855,"latSpan":0.6993549999999971,"lonSpan":1.0719540000000052},{"id":8,"ava_id":"riverland","name":"Riverland","state":"South Australia","created":"1998-12-10","latitude":-34.249987,"longitude":140.27500700000002,"latSpan":0.5,"lonSpan":1.3833340000000192},{"id":9,"ava_id":"southern_flinders_ranges","name":"Southern Flinders Ranges","state":"South Australia","created":"2003-08-19","latitude":-33.005916,"longitude":138.304497,"latSpan":0.9301899999999961,"lonSpan":0.7769799999999805},{"id":10,"ava_id":"lower_murray","name":"Lower Murray","state":"South Australia","created":"1996-12-07","latitude":-34.569014,"longitude":139.9414535,"latSpan":2.4934879999999993,"lonSpan":2.122655000000009},{"id":11,"ava_id":"high_eden","name":"High Eden","state":"South Australia","created":"2001-08-21","latitude":-34.6340795,"longitude":139.018255,"latSpan":0.0968250000000026,"lonSpan":0.07388199999999756},{"id":12,"ava_id":"the_peninsulas","name":"The Peninsulas","state":"South Australia","created":"1996-12-27","latitude":-34.184408675,"longitude":136.762990425,"latSpan":2.1609494,"lonSpan":3.6607336000000146},{"id":13,"ava_id":"robe","name":"Robe","state":"South Australia","created":"2006-08-15","latitude":-37.2413065,"longitude":139.96134949999998,"latSpan":0.5023450000000054,"lonSpan":0.4449610000000064},{"id":14,"ava_id":"padthaway","name":"Padthaway","state":"South Australia","created":"1999-11-29","latitude":-36.7058575,"longitude":140.54386899999997,"latSpan":0.4786189999999948,"lonSpan":0.3899380000000008},{"id":15,"ava_id":"kangaroo_island","name":"Kangaroo Island","state":"South Australia","created":"2000-12-08","latitude":-35.818396,"longitude":137.333561,"latSpan":0.5145760000000053,"lonSpan":1.6022899999999822},{"id":16,"ava_id":"southern_fleurieu","name":"Southern Fleurieu","state":"South Australia","created":"2001-06-06","latitude":-35.463839,"longitude":138.431936,"latSpan":0.4040679999999952,"lonSpan":0.6766000000000076},{"id":17,"ava_id":"clare_valley","name":"Clare Valley","state":"South Australia","created":"1999-03-25","latitude":-33.906487,"longitude":138.63253650000001,"latSpan":0.4010800000000003,"lonSpan":0.25893299999998476},{"id":18,"ava_id":"mount_benson","name":"Mount Benson","state":"South Australia","created":"1997-03-18","latitude":-37.0336935,"longitude":139.78662,"latSpan":0.18662700000000143,"lonSpan":0.23313200000001189},{"id":19,"ava_id":"piccadilly_valley","name":"Piccadilly Valley","state":"South Australia","created":"2000-04-14","latitude":-34.974158,"longitude":138.7463615,"latSpan":0.0822159999999954,"lonSpan":0.08845300000001544},{"id":20,"ava_id":"far_north","name":"Far North","state":"South Australia","created":"1996-12-27","latitude":-29.664831,"longitude":135.002066,"latSpan":7.336905999999999,"lonSpan":12.000438000000003},{"id":21,"ava_id":"lenswood","name":"Lenswood","state":"South Australia","created":"1998-10-16","latitude":-34.925632500000006,"longitude":138.8229665,"latSpan":0.07691700000000168,"lonSpan":0.08754899999999566},{"id":22,"ava_id":"barossa","name":"Barossa","state":"South Australia","created":"1997-08-15","latitude":-34.5572495,"longitude":139.0033615,"latSpan":0.501221000000001,"lonSpan":0.5199049999999943},{"id":23,"ava_id":"limestone_coast","name":"Limestone Coast","state":"South Australia","created":"2000-12-08","latitude":-36.91446825,"longitude":140.51500249999998,"latSpan":2.2545529999999943,"lonSpan":1.68473800000001},{"id":24,"ava_id":"adelaide_hills","name":"Adelaide Hills","state":"South Australia","created":"1996-12-27","latitude":-35.018673,"longitude":138.831302,"latSpan":0.6616860000000031,"lonSpan":0.5052680000000009},{"id":25,"ava_id":"adelaide_plains","name":"Adelaide Plains","state":"South Australia","created":"2002-03-25","latitude":-34.647343,"longitude":138.5595355,"latSpan":0.4104059999999947,"lonSpan":0.38718299999999317},{"id":26,"ava_id":"wrattonbully","name":"Wrattonbully","state":"South Australia","created":"2005-07-05","latitude":-37.0244675,"longitude":140.853402,"latSpan":0.4041129999999953,"lonSpan":0.2746319999999969},{"id":27,"ava_id":"coonawarra","name":"Coonawarra","state":"South Australia","created":"2003-01-06","latitude":-37.3021945,"longitude":140.8630655,"latSpan":0.3268769999999961,"lonSpan":0.22002700000001596},{"id":28,"ava_id":"mount_lofty_ranges","name":"Mount Lofty Ranges","state":"South Australia","created":"1996-12-27","latitude":-34.337479,"longitude":138.7496265,"latSpan":2.024099999999997,"lonSpan":1.2170550000000162}]}]},{"id":6,"country":"Germany","regions":[{"id":0,"region":"Germany","ava":[{"id":0,"ava_id":"germany","name":"Germany","state":"Germany","created":"","latitude":51.165691,"longitude":10.451526,"latSpan":7.634779459000015,"lonSpan":9.169569498999948}]}]},{"id":7,"country":"Argentina","regions":[{"id":0,"region":"Patagonia","ava":[{"id":0,"ava_id":"patagonia","name":"Patagonia","state":"Patagonia","created":"","latitude":-39.20757120744912,"longitude":-68.6865234375,"latSpan":5.872032643594828,"lonSpan":9.195556640625007},{"id":1,"ava_id":"neuqu\u00e9n","name":"Neuqu\u00e9n","state":"Patagonia","created":"","latitude":-38.61629818948116,"longitude":-70.02685546875,"latSpan":4.992341199399405,"lonSpan":3.9111328125},{"id":2,"ava_id":"rio_negro","name":"R\u00edo Negro","state":"Patagonia","created":"","latitude":-39.798844225417085,"longitude":-67.34619140625,"latSpan":4.386632015918394,"lonSpan":9.118652343750007}]},{"id":1,"region":"Valles_Calchaqui\u0301es","ava":[{"id":0,"ava_id":"catamarca","name":"Catamarca","state":"Valles Calchaqu\u00edes","created":"","latitude":-27.645648866444255,"longitude":-66.961669921875,"latSpan":4.960950995560651,"lonSpan":4.28466796875},{"id":1,"ava_id":"tucum\u00e1n","name":"Tucum\u00e1n","state":"Valles Calchaqu\u00edes","created":"","latitude":-27.035460985451554,"longitude":-65.335693359375,"latSpan":1.9178808511891887,"lonSpan":1.73583984375},{"id":2,"ava_id":"salta","name":"Salta","state":"Valles Calchaqu\u00edes","created":"","latitude":-24.202942750804844,"longitude":-65.45654296875,"latSpan":4.3975355558057,"lonSpan":6.240234374999993},{"id":3,"ava_id":"valles_calchaqu\u00edes","name":"Valles Calchaqu\u00edes","state":"Valles Calchaqu\u00edes","created":"","latitude":-26.294684200900218,"longitude":-65.91796875,"latSpan":8.121949391322588,"lonSpan":6.767578124999993}]},{"id":2,"region":"San_Juan","ava":[{"id":0,"ava_id":"san_juan","name":"San Juan","state":"San Juan","created":"","latitude":-30.518112555875817,"longitude":-68.59588623046875,"latSpan":4.2147683172758015,"lonSpan":3.9495849609375}]},{"id":3,"region":"Argentina","ava":[{"id":0,"ava_id":"argentina","name":"Argentina","state":"Argentina","created":"","latitude":-38.416097,"longitude":-63.616672,"latSpan":33.2650781189999,"lonSpan":19.926483968999975}]},{"id":4,"region":"La_Rioja","ava":[{"id":0,"ava_id":"la_rioja","name":"La Rioja","state":"La Rioja","created":"","latitude":-29.863232308719844,"longitude":-67.5164794921875,"latSpan":4.2524190584060655,"lonSpan":4.163818359375}]},{"id":5,"region":"Mendoza","ava":[{"id":0,"ava_id":"mendoza","name":"Mendoza","state":"Mendoza","created":"","latitude":-34.79607320567457,"longitude":-68.543701171875,"latSpan":5.5666786155276355,"lonSpan":4.0869140625}]}]},{"id":8,"country":"Portugal","regions":[{"id":0,"region":"Portugal","ava":[{"id":0,"ava_id":"portugal","name":"Portugal","state":"Portugal","created":"","latitude":39.399872,"longitude":-8.224454,"latSpan":12.124387404999943,"lonSpan":25.078954270999986}]}]},{"id":9,"country":"wineRegionsTOC.json","regions":[]},{"id":10,"country":"China","regions":[{"id":0,"region":"China","ava":[{"id":0,"ava_id":"china","name":"China","state":"China","created":"","latitude":35.86166,"longitude":104.195397,"latSpan":37.79406778399999,"lonSpan":61.17032308}]}]},{"id":11,"country":"South_Africa","regions":[{"id":0,"region":"South_Africa","ava":[{"id":0,"ava_id":"south_africa","name":"South_Africa","state":"South_Africa","created":"","latitude":-40.6648179406666,"longitude":33.44551300000012,"latSpan":24.839300938000093,"lonSpan":21.507812500000057}]}]},{"id":12,"country":"Italy","regions":[{"id":0,"region":"Veneto","ava":[{"id":0,"ava_id":"amarone_della_valpolicella","name":"Amarone della Valpolicella","state":"Veneto","created":"","latitude":45.51928605891585,"longitude":11.0666978516843,"latSpan":0.33847568438029896,"lonSpan":0.5261726034598002},{"id":1,"ava_id":"amarone_della_valpolicella_classico","name":"Amarone della Valpolicella Classico","state":"Veneto","created":"","latitude":45.51928605891585,"longitude":11.0666978516843,"latSpan":0.33847568438029896,"lonSpan":0.5261726034598002},{"id":2,"ava_id":"veneto","name":"Veneto","state":"Veneto","created":"","latitude":45.63889578687603,"longitude":11.988615364828638,"latSpan":1.887672875056296,"lonSpan":2.4771872786727016},{"id":3,"ava_id":"prosecco","name":"Prosecco","state":"Veneto","created":"","latitude":45.70416626740942,"longitude":12.641515983634026,"latSpan":1.6247759686577012,"lonSpan":2.782553922906999},{"id":4,"ava_id":"veronese_igt","name":"Veronese IGT","state":"Veneto","created":"","latitude":45.63889578687603,"longitude":11.988615364828638,"latSpan":1.887672875056296,"lonSpan":2.4771872786727016},{"id":5,"ava_id":"soave_classico","name":"Soave Classico","state":"Veneto","created":"","latitude":45.45867879721425,"longitude":11.2014971749466,"latSpan":0.20350656175970272,"lonSpan":0.2888184709513997}]},{"id":1,"region":"Puglia","ava":[{"id":0,"ava_id":"castel_del_monte","name":"Castel del Monte","state":"Puglia","created":"","latitude":41.1030374626001,"longitude":16.3125074445921,"latSpan":0.3465906771642011,"lonSpan":0.7892120838234007},{"id":1,"ava_id":"puglia","name":"Puglia","state":"Puglia","created":"","latitude":41.117164112898806,"longitude":16.724714188780613,"latSpan":2.4367723785737,"lonSpan":3.586310481448301},{"id":2,"ava_id":"primitivo_di_manduria","name":"Primitivo di Manduria","state":"Puglia","created":"","latitude":40.42758831707695,"longitude":17.53189480362985,"latSpan":0.2660094422700965,"lonSpan":0.5365661213148982},{"id":3,"ava_id":"salice_salentino","name":"Salice Salentino","state":"Puglia","created":"","latitude":40.4101641987309,"longitude":17.9094540995185,"latSpan":0.20688833689360564,"lonSpan":0.27630311196059765},{"id":4,"ava_id":"salento_igt","name":"Salento IGT","state":"Puglia","created":"","latitude":40.237574496867985,"longitude":17.667372357402588,"latSpan":1.1022844720182974,"lonSpan":1.8240587738722986},{"id":5,"ava_id":"puglia_igt","name":"Puglia IGT","state":"Puglia","created":"","latitude":41.117164112898806,"longitude":16.724714188780613,"latSpan":2.4367723785737,"lonSpan":3.586310481448301}]},{"id":2,"region":"Piedmont","ava":[{"id":0,"ava_id":"piedmont","name":"Piedmont","state":"Piedmont","created":"","latitude":45.22429420343939,"longitude":7.894436406873866,"latSpan":2.125590522627398,"lonSpan":2.358036455499091},{"id":1,"ava_id":"barbaresco","name":"Barbaresco","state":"Piedmont","created":"","latitude":44.707523623438405,"longitude":8.10496634208509,"latSpan":0.09887833219699615,"lonSpan":0.09601564110732141},{"id":2,"ava_id":"barbera_d'alba","name":"Barbera d'Alba","state":"Piedmont","created":"","latitude":44.70108410169815,"longitude":8.05944453117134,"latSpan":0.3108703048508943,"lonSpan":0.41825082805451963},{"id":3,"ava_id":"barbera_d'asti","name":"Barbera d'Asti","state":"Piedmont","created":"","latitude":44.805666670749176,"longitude":8.479812900622319,"latSpan":0.6621206651161984,"lonSpan":0.70813325793101},{"id":4,"ava_id":"barolo","name":"Barolo","state":"Piedmont","created":"","latitude":44.624644292096704,"longitude":7.954193403789295,"latSpan":0.1042727072134042,"lonSpan":0.11525303053299041},{"id":5,"ava_id":"langhe_doc","name":"Langhe DOC","state":"Piedmont","created":"","latitude":44.567460130897146,"longitude":8.309788147552835,"latSpan":0.47957148142570105,"lonSpan":1.0385013020787106}]},{"id":3,"region":"Tuscany","ava":[{"id":0,"ava_id":"vino_nobile_di_montepulciano","name":"Vino Nobile di Montepulciano","state":"Tuscany","created":"","latitude":43.108276690861345,"longitude":11.8477897836889,"latSpan":0.15453331263530146,"lonSpan":0.22684511239279992},{"id":1,"ava_id":"bolgheri_sassicaia","name":"Bolgheri Sassicaia","state":"Tuscany","created":"","latitude":43.1728679161062,"longitude":10.609635405739098,"latSpan":0.14899129266979827,"lonSpan":0.16168150248720004},{"id":2,"ava_id":"bolgheri","name":"Bolgheri","state":"Tuscany","created":"","latitude":43.1728679161062,"longitude":10.609635405739098,"latSpan":0.14899129266979827,"lonSpan":0.16168150248720004},{"id":3,"ava_id":"bolgheri_superiore","name":"Bolgheri Superiore","state":"Tuscany","created":"","latitude":43.1728679161062,"longitude":10.609635405739098,"latSpan":0.14899129266979827,"lonSpan":0.16168150248720004},{"id":4,"ava_id":"chianti_classico_docg","name":"Chianti Classico DOCG","state":"Tuscany","created":"","latitude":43.52226307765305,"longitude":11.3361975590232,"latSpan":0.37238195719989875,"lonSpan":0.4291789584802004},{"id":5,"ava_id":"tuscany","name":"Tuscany","state":"Tuscany","created":"","latitude":42.91491752778597,"longitude":10.66178611657555,"latSpan":2.2351449712106017,"lonSpan":2.684598567808189},{"id":6,"ava_id":"brunello_di_montalcino","name":"Brunello di Montalcino","state":"Tuscany","created":"","latitude":43.035219104816,"longitude":11.46985096663715,"latSpan":0.15574512471499702,"lonSpan":0.23895176465650003},{"id":7,"ava_id":"maremma_toscana","name":"Maremma Toscana","state":"Tuscany","created":"","latitude":42.535007395583165,"longitude":11.005172583088585,"latSpan":0.9515942379186981,"lonSpan":1.1139196706210992},{"id":8,"ava_id":"colli_della_toscana_centrale_igt","name":"Colli della Toscana Centrale IGT","state":"Tuscany","created":"","latitude":43.6514889907983,"longitude":11.85167220891625,"latSpan":1.453450436333199,"lonSpan":1.7503727797531},{"id":9,"ava_id":"rosso_di_montalcino","name":"Rosso di Montalcino","state":"Tuscany","created":"","latitude":43.03521323699505,"longitude":11.47017647752355,"latSpan":0.1558212723940997,"lonSpan":0.23957139006369843},{"id":10,"ava_id":"toscana_igt","name":"Toscana IGT","state":"Tuscany","created":"","latitude":42.91491752778597,"longitude":10.66178611657555,"latSpan":2.2351449712106017,"lonSpan":2.684598567808189}]},{"id":4,"region":"Abruzzi","ava":[{"id":0,"ava_id":"trebbiano_d'abruzzo","name":"Trebbiano d'Abruzzo","state":"Abruzzi","created":"","latitude":42.535130178017795,"longitude":13.927928499671076,"latSpan":1.2125227641977006,"lonSpan":1.7643913143576988},{"id":1,"ava_id":"montepulciano_d'abruzzo_colline_teramane","name":"Montepulciano d'Abruzzo Colline Teramane","state":"Abruzzi","created":"","latitude":42.768359380274525,"longitude":13.906324273050899,"latSpan":0.40759169580759647,"lonSpan":0.5823263805782002},{"id":2,"ava_id":"abruzzi","name":"Abruzzi","state":"Abruzzi","created":"","latitude":42.535130178017795,"longitude":13.927928499671076,"latSpan":1.2125227641977006,"lonSpan":1.7643913143576988},{"id":3,"ava_id":"cerasuolo_d'abruzzo","name":"Cerasuolo d'Abruzzo","state":"Abruzzi","created":"","latitude":42.290350445015825,"longitude":13.851483506441435,"latSpan":1.1402841267587007,"lonSpan":1.4263236495727991},{"id":4,"ava_id":"montepulciano_d'abruzzo","name":"Montepulciano d'Abruzzo","state":"Abruzzi","created":"","latitude":42.535130178017795,"longitude":13.927928499671076,"latSpan":1.2125227641977006,"lonSpan":1.7643913143576988}]},{"id":5,"region":"Italy","ava":[{"id":0,"ava_id":"italy","name":"Italy","state":"Italy","created":"","latitude":41.87194,"longitude":12.56738,"latSpan":11.595971063000036,"lonSpan":11.914697665000062}]},{"id":6,"region":"Lombardia","ava":[{"id":0,"ava_id":"valtellina_superiore_-_sassella","name":"Valtellina Superiore - Sassella","state":"Lombardia","created":"","latitude":46.18370518694114,"longitude":9.928501750677187,"latSpan":0.06856240019109805,"lonSpan":0.5089434009876701},{"id":1,"ava_id":"valtellina_superiore_-_grumello","name":"Valtellina Superiore - Grumello","state":"Lombardia","created":"","latitude":46.18370518694114,"longitude":9.928501750677187,"latSpan":0.06856240019109805,"lonSpan":0.5089434009876701},{"id":2,"ava_id":"oltrep\u00f2_pavese","name":"Oltrep\u00f2 Pavese","state":"Lombardia","created":"","latitude":44.9482383322675,"longitude":9.18895578210281,"latSpan":0.2614047290611978,"lonSpan":0.4006856866260815},{"id":3,"ava_id":"provincia_di_pavia_igt","name":"Provincia di Pavia IGT","state":"Lombardia","created":"","latitude":45.04648812013288,"longitude":9.314281301490436,"latSpan":0.5304392124022996,"lonSpan":0.5087030947967399},{"id":4,"ava_id":"franciacorta_docg","name":"Franciacorta DOCG","state":"Lombardia","created":"","latitude":45.61233891986675,"longitude":10.05129936128225,"latSpan":0.12984820813170472,"lonSpan":0.2948594383791008},{"id":5,"ava_id":"lombardia","name":"Lombardia","state":"Lombardia","created":"","latitude":45.479810679956564,"longitude":9.591674929127832,"latSpan":1.6749553674000026,"lonSpan":2.3422636088623605},{"id":6,"ava_id":"valtellina_superiore","name":"Valtellina Superiore","state":"Lombardia","created":"","latitude":46.18370518694114,"longitude":9.928501750677187,"latSpan":0.06856240019109805,"lonSpan":0.5089434009876701},{"id":7,"ava_id":"lugana","name":"Lugana","state":"Lombardia","created":"","latitude":45.430870970648854,"longitude":10.60746249565615,"latSpan":0.09428687148290038,"lonSpan":0.14991121986889944},{"id":8,"ava_id":"sforzato_di_valtellina","name":"Sforzato di Valtellina","state":"Lombardia","created":"","latitude":46.17648703021112,"longitude":9.966680672674737,"latSpan":0.0900888243510991,"lonSpan":0.5745919510016488},{"id":9,"ava_id":"rosso_di_valtellina","name":"Rosso di Valtellina","state":"Lombardia","created":"","latitude":46.17648703021112,"longitude":9.966680672674737,"latSpan":0.0900888243510991,"lonSpan":0.5745919510016488}]},{"id":7,"region":"Umbria","ava":[{"id":0,"ava_id":"orvieto_classico","name":"Orvieto Classico","state":"Umbria","created":"","latitude":42.6775780390725,"longitude":12.259341673288775,"latSpan":0.4120827043780011,"lonSpan":0.5191693836829998},{"id":1,"ava_id":"montefalco_sagrantino","name":"Montefalco Sagrantino","state":"Umbria","created":"","latitude":42.89967752609185,"longitude":12.58956686136635,"latSpan":0.18262021393150007,"lonSpan":0.2270033065146997},{"id":2,"ava_id":"montefalco_rosso","name":"Montefalco Rosso","state":"Umbria","created":"","latitude":42.89967752609185,"longitude":12.58956686136635,"latSpan":0.18262021393150007,"lonSpan":0.2270033065146997},{"id":3,"ava_id":"umbria","name":"Umbria","state":"Umbria","created":"","latitude":43.09093689919567,"longitude":12.364436167223717,"latSpan":1.252051360446302,"lonSpan":1.3722328642764001},{"id":4,"ava_id":"torgiano","name":"Torgiano","state":"Umbria","created":"","latitude":43.042937716434395,"longitude":12.45261711478045,"latSpan":0.09500293151599948,"lonSpan":0.09227718539710139}]}]},{"id":13,"country":"Austria","regions":[{"id":0,"region":"Austria","ava":[{"id":0,"ava_id":"austria","name":"Austria","state":"Austria","created":"","latitude":47.516231,"longitude":14.550072,"latSpan":2.631131388,"lonSpan":7.627183024999965}]}]},{"id":14,"country":"Greece","regions":[{"id":0,"region":"Greece","ava":[{"id":0,"ava_id":"greece","name":"Greece","state":"Greece","created":"","latitude":39.074208,"longitude":21.824312,"latSpan":6.935467117000002,"lonSpan":8.613281249999972}]}]},{"id":15,"country":"Chile","regions":[{"id":0,"region":"Chile","ava":[{"id":0,"ava_id":"chile","name":"Chile","state":"Chile","created":"","latitude":-35.675147,"longitude":-71.542969,"latSpan":38.411916024999826,"lonSpan":43.032918294999945}]}]},{"id":16,"country":"Lebanon","regions":[{"id":0,"region":"Lebanon","ava":[{"id":0,"ava_id":"lebanon","name":"Lebanon","state":"Lebanon","created":"","latitude":33.854721,"longitude":35.862285,"latSpan":1.63196757099999,"lonSpan":1.504481207999902}]}]}]}
