{"id":0,"country":"USA","region":"Washington","ava":[{"id":0,"ava_id":"rattlesnake_hills","name":"Rattlesnake Hills","state":"Washington","created":"2006-03-20","latSpan":0.1592,"lonSpan":0.4695,"latitude":46.4455804118455,"longitude":-120.23589728812266},{"id":1,"ava_id":"white_bluffs","name":"White Bluffs","state":"Washington","created":"2021-07-19","latSpan":0.3269,"lonSpan":0.2737,"latitude":46.52418320288113,"longitude":-119.18848609053047},{"id":2,"ava_id":"wahluke_slope","name":"Wahluke Slope","state":"Washington","created":"2006-01-06","latSpan":0.1656,"lonSpan":0.4314,"latitude":46.71044819465085,"longitude":-119.75343084207326},{"id":3,"ava_id":"columbia_gorge","name":"Columbia Gorge","state":"Oregon|Washington","created":"2004-05-10","latSpan":0.3655,"lonSpan":0.418,"latitude":45.68728685185849,"longitude":-121.46182013808053},{"id":4,"ava_id":"candy_mountain","name":"Candy Mountain","state":"Washington","created":"2020-10-26","latSpan":0.0208,"lonSpan":0.0464,"latitude":46.25521860165122,"longitude":-119.36554514705476},{"id":5,"ava_id":"puget_sound","name":"Puget Sound","state":"Washington","created":"1995-10-04","latSpan":2.2417,"lonSpan":1.6944,"latitude":47.88168869303773,"longitude":-122.72989590766028},{"id":6,"ava_id":"goose_gap","name":"Goose Gap","state":"Washington","created":"2021-08-02","latSpan":0.0573,"lonSpan":0.1213,"latitude":46.24286270360111,"longitude":-119.4053049411274},{"id":7,"ava_id":"lewis-clark_valley","name":"Lewis-Clark Valley","state":"Idaho|Washington","created":"2016-05-20","latSpan":0.6894,"lonSpan":1.3819,"latitude":46.37929719826611,"longitude":-116.72542907597258},{"id":8,"ava_id":"snipes_mountain","name":"Snipes Mountain","state":"Washington","created":"2009-02-20","latSpan":0.0412,"lonSpan":0.1565,"latitude":46.31941474999999,"longitude":-120.1076463},{"id":9,"ava_id":"red_mountain","name":"Red Mountain","state":"Washington","created":"2001-06-11","latSpan":0.0552,"lonSpan":0.0627,"latitude":46.28345379348376,"longitude":-119.44061830582368},{"id":10,"ava_id":"columbia_valley","name":"Columbia Valley","state":"Oregon|Washington","created":"1984-12-13","latSpan":3.0737,"lonSpan":4.2583,"latitude":46.75525021584244,"longitude":-119.16793618548897},{"id":11,"ava_id":"naches_heights","name":"Naches Heights","state":"Washington","created":"2012-01-13","latSpan":0.1265,"lonSpan":0.1901,"latitude":46.68114734815502,"longitude":-120.67755787845576},{"id":12,"ava_id":"washington","name":"Washington","state":"Washington","created":"2002-03-25","latSpan":0.5075,"lonSpan":0.4204,"latitude":48.157794,"longitude":-122.559821},{"id":13,"ava_id":"the_burn_of_columbia_valley","name":"The Burn of Columbia Valley","state":"Washington","created":"2021-07-19","latSpan":0.0706,"lonSpan":0.1824,"latitude":45.73785456030308,"longitude":-120.37322437986924},{"id":14,"ava_id":"ancient_lakes_of_columbia_valley","name":"Ancient Lakes of Columbia Valley","state":"Washington","created":"2012-11-19","latSpan":0.307,"lonSpan":0.349,"latitude":47.125257250000004,"longitude":-119.92081569999999},{"id":15,"ava_id":"walla_walla_valley","name":"Walla Walla Valley","state":"Oregon|Washington","created":"1984-01-12","latSpan":0.3805,"lonSpan":0.6564,"latitude":46.018315102830826,"longitude":-118.42614615489103},{"id":16,"ava_id":"horse_heaven_hills","name":"Horse Heaven Hills","state":"Washington","created":"2005-08-01","latSpan":0.4636,"lonSpan":1.2036,"latitude":46.0213101896239,"longitude":-119.59835653038726},{"id":17,"ava_id":"lake_chelan","name":"Lake Chelan","state":"Washington","created":"2009-05-29","latSpan":0.1217,"lonSpan":0.2643,"latitude":47.876103,"longitude":-120.1046925},{"id":18,"ava_id":"royal_slope","name":"Royal Slope","state":"Washington","created":"2020-10-02","latSpan":0.1682,"lonSpan":0.69,"latitude":46.913277122138794,"longitude":-119.63488453537786},{"id":19,"ava_id":"rocky_reach","name":"Rocky Reach","state":"Washington","created":"2022-06-03","latSpan":0.3202,"lonSpan":0.3177,"latitude":47.63888535969761,"longitude":-120.16598706953134},{"id":20,"ava_id":"yakima_valley","name":"Yakima Valley","state":"Washington","created":"1983-05-04","latSpan":0.3812,"lonSpan":1.5429,"latitude":46.33983392142586,"longitude":-120.09041834829462}]}