{"id":0,"country":"USA","region":"Oregon","ava":[{"id":0,"ava_id":"elkton_oregon","name":"Elkton Oregon","state":"Oregon","created":"2013-03-07","latSpan":0.2142,"lonSpan":0.2563,"latitude":43.626134349999994,"longitude":-123.57749620000001},{"id":1,"ava_id":"lower_long_tom","name":"Lower Long Tom","state":"Oregon","created":"2021-12-10","latSpan":0.1586,"lonSpan":0.1549,"latitude":44.22750682495888,"longitude":-123.35858529458307},{"id":2,"ava_id":"rogue_valley","name":"Rogue Valley","state":"Oregon","created":"1991-02-22","latSpan":0.7406,"lonSpan":1.2558,"latitude":42.370415,"longitude":-123.149858},{"id":3,"ava_id":"ribbon_ridge","name":"Ribbon Ridge","state":"Oregon","created":"2005-06-01","latSpan":0.0512,"lonSpan":0.045,"latitude":45.356072,"longitude":-123.0792015},{"id":4,"ava_id":"columbia_gorge","name":"Columbia Gorge","state":"Oregon|Washington","created":"2004-05-10","latSpan":0.3655,"lonSpan":0.418,"latitude":45.68728685185849,"longitude":-121.46182013808053},{"id":5,"ava_id":"snake_river_valley","name":"Snake River Valley","state":"Idaho|Oregon","created":"2007-04-09","latSpan":2.4725,"lonSpan":3.6557,"latitude":43.76354173717782,"longitude":-116.18684964274775},{"id":6,"ava_id":"dundee_hills","name":"Dundee Hills","state":"Oregon","created":"2005-01-31","latSpan":0.0858,"lonSpan":0.1174,"latitude":45.2793165,"longitude":-123.0594515},{"id":7,"ava_id":"van_duzer_corridor","name":"Van Duzer Corridor","state":"Oregon","created":"2018-12-14","latSpan":0.1535,"lonSpan":0.2545,"latitude":45.00970958169712,"longitude":-123.2863869617226},{"id":8,"ava_id":"laurelwood_district","name":"Laurelwood District","state":"Oregon","created":"2020-07-06","latSpan":0.195,"lonSpan":0.2497,"latitude":45.399211983943616,"longitude":-122.97123583857717},{"id":9,"ava_id":"chehalem_mountains","name":"Chehalem Mountains","state":"Oregon","created":"2006-11-24","latSpan":0.2378,"lonSpan":0.3228,"latitude":45.377720999999994,"longitude":-122.961154},{"id":10,"ava_id":"umpqua_valley","name":"Umpqua Valley","state":"Oregon","created":"1984-03-16","latSpan":0.8838,"lonSpan":0.8606,"latitude":43.33729601151617,"longitude":-123.39819021548122},{"id":11,"ava_id":"yamhill-carlton","name":"Yamhill-Carlton","state":"Oregon","created":"2004-11-18","latSpan":0.1837,"lonSpan":0.2117,"latitude":45.34625566592583,"longitude":-123.18704758917622},{"id":12,"ava_id":"the_rocks_district_of_milton-freewater","name":"The Rocks District of Milton-Freewater","state":"Oregon","created":"2015-03-11","latSpan":0.0337,"lonSpan":0.0702,"latitude":45.95610998323523,"longitude":-118.4066429135181},{"id":13,"ava_id":"applegate_valley","name":"Applegate Valley","state":"Oregon","created":"2000-12-14","latSpan":0.3329,"lonSpan":0.7636,"latitude":42.26504875130216,"longitude":-123.2000025},{"id":14,"ava_id":"columbia_valley","name":"Columbia Valley","state":"Oregon|Washington","created":"1984-12-13","latSpan":3.0737,"lonSpan":4.2583,"latitude":46.75525021584244,"longitude":-119.16793618548897},{"id":15,"ava_id":"willamette_valley","name":"Willamette Valley","state":"Oregon","created":"1984-01-03","latSpan":2.191,"lonSpan":1.6041,"latitude":44.67165328688132,"longitude":-122.92984694458882},{"id":16,"ava_id":"mount_pisgah,_polk_county,_oregon","name":"Mount Pisgah, Polk County, Oregon","state":"Oregon","created":"2022-06-03","latSpan":0.057,"lonSpan":0.075,"latitude":44.88044690630427,"longitude":-123.29078911115835},{"id":17,"ava_id":"eola-amity_hills","name":"Eola-Amity Hills","state":"Oregon","created":"2006-08-16","latSpan":0.2338,"lonSpan":0.133,"latitude":45.0476495,"longitude":-123.142266},{"id":18,"ava_id":"walla_walla_valley","name":"Walla Walla Valley","state":"Oregon|Washington","created":"1984-01-12","latSpan":0.3805,"lonSpan":0.6564,"latitude":46.018315102830826,"longitude":-118.42614615489103},{"id":19,"ava_id":"mcminnville","name":"McMinnville","state":"Oregon","created":"2005-03-21","latSpan":0.1417,"lonSpan":0.2458,"latitude":45.16027897106339,"longitude":-123.34262503689646},{"id":20,"ava_id":"tualatin_hills","name":"Tualatin Hills","state":"Oregon","created":"2020-07-06","latSpan":0.3337,"lonSpan":0.5186,"latitude":45.60031215931319,"longitude":-123.12190885538456},{"id":21,"ava_id":"southern_oregon","name":"Southern Oregon","state":"Oregon","created":"2004-12-08","latSpan":1.7796,"lonSpan":1.3067,"latitude":42.889602129142304,"longitude":-123.17515043403992},{"id":22,"ava_id":"red_hill_douglas_county,_oregon","name":"Red Hill Douglas County, Oregon","state":"Oregon","created":"2005-11-14","latSpan":0.1148,"lonSpan":0.0911,"latitude":43.54428386829411,"longitude":-123.27016508019904}]}