{
  "id": 0,
  "country": "USA",
  "region": "California",
  "ava": [
    {
      "id": 0,
      "ava_id": "tracy_hills",
      "name": "Tracy Hills",
      "state": "California",
      "created": "2006-12-08",
      "latSpan": 0.2754,
      "lonSpan": 0.4746,
      "latitude": 37.634247884973846,
      "longitude": -121.3876891582241
    },
    {
      "id": 1,
      "ava_id": "los_carneros",
      "name": "Los Carneros",
      "state": "California",
      "created": "1983-09-19",
      "latSpan": 0.3058,
      "lonSpan": 0.5252,
      "latitude": 38.227236250000004,
      "longitude": -122.41358085000002
    },
    {
      "id": 2,
      "ava_id": "alexander_valley",
      "name": "Alexander Valley",
      "state": "California",
      "created": "1984-11-23",
      "latSpan": 0.5348,
      "lonSpan": 0.7142,
      "latitude": 38.719084293996765,
      "longitude": -122.90267920143552
    },
    {
      "id": 3,
      "ava_id": "monterey",
      "name": "Monterey",
      "state": "California",
      "created": "1984-06-15",
      "latSpan": 2.2562,
      "lonSpan": 2.3614,
      "latitude": 36.355762888507854,
      "longitude": -121.38862987164245
    },
    {
      "id": 4,
      "ava_id": "diablo_grande",
      "name": "Diablo Grande",
      "state": "California",
      "created": "1998-08-21",
      "latSpan": 0.3114,
      "lonSpan": 0.3022,
      "latitude": 37.356823938998716,
      "longitude": -121.27649364547221
    },
    {
      "id": 5,
      "ava_id": "bennett_valley",
      "name": "Bennett Valley",
      "state": "California",
      "created": "2003-12-29",
      "latSpan": 0.1522,
      "lonSpan": 0.1768,
      "latitude": 38.39357222518552,
      "longitude": -122.63051464311155
    },
    {
      "id": 6,
      "ava_id": "palos_verdes_peninsula",
      "name": "Palos Verdes Peninsula",
      "state": "California",
      "created": "2021-07-19",
      "latSpan": 0.1646,
      "lonSpan": 0.2394,
      "latitude": 33.76313051740972,
      "longitude": -118.36859027435078
    },
    {
      "id": 7,
      "ava_id": "mcdowell_valley",
      "name": "McDowell Valley",
      "state": "California",
      "created": "1982-01-04",
      "latSpan": 0.091,
      "lonSpan": 0.0878,
      "latitude": 38.96892853209805,
      "longitude": -123.04297688670869
    },
    {
      "id": 8,
      "ava_id": "oakville",
      "name": "Oakville",
      "state": "California",
      "created": "1993-08-02",
      "latSpan": 0.1328,
      "lonSpan": 0.2154,
      "latitude": 38.43179174324874,
      "longitude": -122.38406165942962
    },
    {
      "id": 9,
      "ava_id": "happy_canyon_of_santa_barbara",
      "name": "Happy Canyon of Santa Barbara",
      "state": "California",
      "created": "2009-11-09",
      "latSpan": 0.3088,
      "lonSpan": 0.2032,
      "latitude": 34.66562764689736,
      "longitude": -120.00006317492125
    },
    {
      "id": 10,
      "ava_id": "squaw_valley-miramonte",
      "name": "Squaw Valley-Miramonte",
      "state": "California",
      "created": "2015-09-08",
      "latSpan": 0.2344,
      "lonSpan": 0.4858,
      "latitude": 36.71606057921065,
      "longitude": -119.15856166656596
    },
    {
      "id": 11,
      "ava_id": "solano_county_green_valley",
      "name": "Solano County Green Valley",
      "state": "California",
      "created": "1983-01-28",
      "latSpan": 0.2192,
      "lonSpan": 0.1648,
      "latitude": 38.26106311656996,
      "longitude": -122.17554085077381
    },
    {
      "id": 12,
      "ava_id": "sonoma_mountain",
      "name": "Sonoma Mountain",
      "state": "California",
      "created": "1985-02-22",
      "latSpan": 0.1482,
      "lonSpan": 0.196,
      "latitude": 38.35148031220271,
      "longitude": -122.56628647705199
    },
    {
      "id": 13,
      "ava_id": "ballard_canyon",
      "name": "Ballard Canyon",
      "state": "California",
      "created": "2013-11-01",
      "latSpan": 0.152,
      "lonSpan": 0.123,
      "latitude": 34.64217873670856,
      "longitude": -120.15174056753989
    },
    {
      "id": 14,
      "ava_id": "el_pomar_district",
      "name": "El Pomar District",
      "state": "California",
      "created": "2014-11-10",
      "latSpan": 0.24,
      "lonSpan": 0.2644,
      "latitude": 35.56342257646598,
      "longitude": -120.61662908235041
    },
    {
      "id": 15,
      "ava_id": "malibu-newton_canyon",
      "name": "Malibu-Newton Canyon",
      "state": "California",
      "created": "1996-06-13",
      "latSpan": 0.0326,
      "lonSpan": 0.079,
      "latitude": 34.08123431809254,
      "longitude": -118.79929603828921
    },
    {
      "id": 16,
      "ava_id": "anderson_valley",
      "name": "Anderson Valley",
      "state": "California",
      "created": "1983-09-19",
      "latSpan": 0.4184,
      "lonSpan": 0.6896,
      "latitude": 39.06369706684768,
      "longitude": -123.46255096707877
    },
    {
      "id": 17,
      "ava_id": "lime_kiln_valley",
      "name": "Lime Kiln Valley",
      "state": "California",
      "created": "1982-07-06",
      "latSpan": 0.0702,
      "lonSpan": 0.111,
      "latitude": 36.693929053508754,
      "longitude": -121.34791458996833
    },
    {
      "id": 18,
      "ava_id": "green_valley_of_russian_river_valley",
      "name": "Green Valley of Russian River Valley",
      "state": "California",
      "created": "1983-12-21",
      "latSpan": 0.25,
      "lonSpan": 0.2422,
      "latitude": 38.4405663860372,
      "longitude": -122.88471008011436
    },
    {
      "id": 19,
      "ava_id": "san_miguel_district",
      "name": "San Miguel District",
      "state": "California",
      "created": "2014-11-10",
      "latSpan": 0.1978,
      "lonSpan": 0.2794,
      "latitude": 35.74174553733245,
      "longitude": -120.69580995131778
    },
    {
      "id": 20,
      "ava_id": "paso_robles_willow_creek_district",
      "name": "Paso Robles Willow Creek District",
      "state": "California",
      "created": "2014-11-10",
      "latSpan": 0.171,
      "lonSpan": 0.2808,
      "latitude": 35.58437242111073,
      "longitude": -120.7623069021997
    },
    {
      "id": 21,
      "ava_id": "rutherford",
      "name": "Rutherford",
      "state": "California",
      "created": "1993-08-02",
      "latSpan": 0.1294,
      "lonSpan": 0.191,
      "latitude": 38.4674356,
      "longitude": -122.41729915
    },
    {
      "id": 22,
      "ava_id": "fair_play",
      "name": "Fair Play",
      "state": "California",
      "created": "2001-04-27",
      "latSpan": 0.2148,
      "lonSpan": 0.2962,
      "latitude": 38.59926995332239,
      "longitude": -120.66814689072368
    },
    {
      "id": 23,
      "ava_id": "petaluma_gap",
      "name": "Petaluma Gap",
      "state": "California",
      "created": "2018-01-08",
      "latSpan": 0.535,
      "lonSpan": 1.2918,
      "latitude": 38.2388592,
      "longitude": -122.7556371
    },
    {
      "id": 24,
      "ava_id": "central_coast",
      "name": "Central Coast",
      "state": "California",
      "created": "1985-11-25",
      "latSpan": 7.327,
      "lonSpan": 5.9114,
      "latitude": 36.226560011910664,
      "longitude": -121.04305639593133
    },
    {
      "id": 25,
      "ava_id": "stags_leap_district",
      "name": "Stags Leap District",
      "state": "California",
      "created": "1989-02-27",
      "latSpan": 0.1054,
      "lonSpan": 0.1076,
      "latitude": 38.404465721560825,
      "longitude": -122.32494192039354
    },
    {
      "id": 26,
      "ava_id": "redwood_valley",
      "name": "Redwood Valley",
      "state": "California",
      "created": "1997-02-21",
      "latSpan": 0.259,
      "lonSpan": 0.26,
      "latitude": 39.3007333,
      "longitude": -123.19676991334299
    },
    {
      "id": 27,
      "ava_id": "sonoma_valley",
      "name": "Sonoma Valley",
      "state": "California",
      "created": "1982-01-04",
      "latSpan": 0.7104,
      "lonSpan": 0.65,
      "latitude": 38.29367646885994,
      "longitude": -122.51222138963067
    },
    {
      "id": 28,
      "ava_id": "sonoma_coast",
      "name": "Sonoma Coast",
      "state": "California",
      "created": "1987-07-13",
      "latSpan": 1.3346,
      "lonSpan": 2.368,
      "latitude": 38.445294700000005,
      "longitude": -122.9417349
    },
    {
      "id": 29,
      "ava_id": "fiddletown",
      "name": "Fiddletown",
      "state": "California",
      "created": "1983-11-03",
      "latSpan": 0.113,
      "lonSpan": 0.2228,
      "latitude": 38.49546009259197,
      "longitude": -120.7436386126304
    },
    {
      "id": 30,
      "ava_id": "arroyo_grande_valley",
      "name": "Arroyo Grande Valley",
      "state": "California",
      "created": "1990-02-05",
      "latSpan": 0.2852,
      "lonSpan": 0.4118,
      "latitude": 35.14815595001841,
      "longitude": -120.4859278318438
    },
    {
      "id": 31,
      "ava_id": "st._helena",
      "name": "St. Helena",
      "state": "California",
      "created": "1995-10-11",
      "latSpan": 0.1816,
      "lonSpan": 0.2104,
      "latitude": 38.52100841768396,
      "longitude": -122.46447687587089
    },
    {
      "id": 32,
      "ava_id": "san_benito",
      "name": "San Benito",
      "state": "California",
      "created": "1987-11-04",
      "latSpan": 0.3426,
      "lonSpan": 0.3902,
      "latitude": 36.71062007736007,
      "longitude": -121.31452104244178
    },
    {
      "id": 33,
      "ava_id": "pacheco_pass",
      "name": "Pacheco Pass",
      "state": "California",
      "created": "1984-04-11",
      "latSpan": 0.1182,
      "lonSpan": 0.0566,
      "latitude": 36.970385434682385,
      "longitude": -121.37813178242605
    },
    {
      "id": 34,
      "ava_id": "cucamonga_valley",
      "name": "Cucamonga Valley",
      "state": "California",
      "created": "1995-05-01",
      "latSpan": 0.5322,
      "lonSpan": 0.696,
      "latitude": 34.05403196820959,
      "longitude": -117.47712059399204
    },
    {
      "id": 35,
      "ava_id": "howell_mountain",
      "name": "Howell Mountain",
      "state": "California",
      "created": "1984-01-30",
      "latSpan": 0.2136,
      "lonSpan": 0.285,
      "latitude": 38.57894594126221,
      "longitude": -122.45044118892858
    },
    {
      "id": 36,
      "ava_id": "trinity_lakes",
      "name": "Trinity Lakes",
      "state": "California",
      "created": "2005-04-29",
      "latSpan": 0.906,
      "lonSpan": 0.7018,
      "latitude": 40.87707881109331,
      "longitude": -122.76446002479199
    },
    {
      "id": 37,
      "ava_id": "upper_lake_valley",
      "name": "Upper Lake Valley",
      "state": "California",
      "created": "2022-07-05",
      "latSpan": 0.229,
      "lonSpan": 0.3882,
      "latitude": 39.1566821,
      "longitude": -122.90167629999999
    },
    {
      "id": 38,
      "ava_id": "saddle_rock-malibu",
      "name": "Saddle Rock-Malibu",
      "state": "California",
      "created": "2006-08-16",
      "latSpan": 0.065,
      "lonSpan": 0.114,
      "latitude": 34.098140615164354,
      "longitude": -118.82989401715086
    },
    {
      "id": 39,
      "ava_id": "clear_lake",
      "name": "Clear Lake",
      "state": "California",
      "created": "1984-06-07",
      "latSpan": 0.7468,
      "lonSpan": 0.937,
      "latitude": 39.02905784871083,
      "longitude": -122.76447430981932
    },
    {
      "id": 40,
      "ava_id": "san_luis_obispo_coast",
      "name": "San Luis Obispo Coast",
      "state": "California",
      "created": "2022-04-08",
      "latSpan": 1.548,
      "lonSpan": 1.9354,
      "latitude": 35.37902128694239,
      "longitude": -120.84408812232851
    },
    {
      "id": 41,
      "ava_id": "ben_lomond_mountain",
      "name": "Ben Lomond Mountain",
      "state": "California",
      "created": "1988-01-08",
      "latSpan": 0.3298,
      "lonSpan": 0.3824,
      "latitude": 37.07936485570029,
      "longitude": -122.14724153161875
    },
    {
      "id": 42,
      "ava_id": "sierra_pelona_valley",
      "name": "Sierra Pelona Valley",
      "state": "California",
      "created": "2010-08-23",
      "latSpan": 0.1634,
      "lonSpan": 0.249,
      "latitude": 34.50896289389698,
      "longitude": -118.30977451089316
    },
    {
      "id": 43,
      "ava_id": "mt._harlan",
      "name": "Mt. Harlan",
      "state": "California",
      "created": "1990-12-17",
      "latSpan": 0.1,
      "lonSpan": 0.2396,
      "latitude": 36.69685083572324,
      "longitude": -121.41185725607207
    },
    {
      "id": 44,
      "ava_id": "guenoc_valley",
      "name": "Guenoc Valley",
      "state": "California",
      "created": "1981-12-21",
      "latSpan": 0.1144,
      "lonSpan": 0.1268,
      "latitude": 38.74314897382635,
      "longitude": -122.51702283717131
    },
    {
      "id": 45,
      "ava_id": "coombsville",
      "name": "Coombsville",
      "state": "California",
      "created": "2002-01-13",
      "latSpan": 0.163,
      "lonSpan": 0.166,
      "latitude": 38.30599957632127,
      "longitude": -122.24435381590621
    },
    {
      "id": 46,
      "ava_id": "california",
      "name": "California",
      "state": "California",
      "created": "2002-03-25",
      "latSpan": 0.284,
      "lonSpan": 0.5564,
      "latitude": 33.9667205,
      "longitude": -120.10937200000001
    },
    {
      "id": 47,
      "ava_id": "pine_mountain-cloverdale_peak",
      "name": "Pine Mountain-Cloverdale Peak",
      "state": "California",
      "created": "2011-11-28",
      "latSpan": 0.089,
      "lonSpan": 0.1336,
      "latitude": 38.856654301414395,
      "longitude": -122.97328920326947
    },
    {
      "id": 48,
      "ava_id": "alta_mesa",
      "name": "Alta Mesa",
      "state": "California",
      "created": "2006-08-16",
      "latSpan": 0.3984,
      "lonSpan": 0.461,
      "latitude": 38.338661638985585,
      "longitude": -121.28659031013959
    },
    {
      "id": 49,
      "ava_id": "paicines",
      "name": "Paicines",
      "state": "California",
      "created": "1982-09-15",
      "latSpan": 0.2556,
      "lonSpan": 0.1848,
      "latitude": 36.68885666139563,
      "longitude": -121.26316705338925
    },
    {
      "id": 50,
      "ava_id": "mt._veeder",
      "name": "Mt. Veeder",
      "state": "California",
      "created": "1990-03-22",
      "latSpan": 0.3228,
      "lonSpan": 0.3072,
      "latitude": 38.358187087059335,
      "longitude": -122.4210578510199
    },
    {
      "id": 51,
      "ava_id": "santa_margarita_ranch",
      "name": "Santa Margarita Ranch",
      "state": "California",
      "created": "2014-11-10",
      "latSpan": 0.2302,
      "lonSpan": 0.2662,
      "latitude": 35.37352702661403,
      "longitude": -120.59010767038012
    },
    {
      "id": 52,
      "ava_id": "willow_creek",
      "name": "Willow Creek",
      "state": "California",
      "created": "1983-09-19",
      "latSpan": 0.2262,
      "lonSpan": 0.2286,
      "latitude": 40.92929135279495,
      "longitude": -123.61439122603193
    },
    {
      "id": 53,
      "ava_id": "san_pasqual_valley",
      "name": "San Pasqual Valley",
      "state": "California",
      "created": "1981-09-16",
      "latSpan": 0.2202,
      "lonSpan": 0.3112,
      "latitude": 33.078781750000005,
      "longitude": -116.99519885
    },
    {
      "id": 54,
      "ava_id": "york_mountain",
      "name": "York Mountain",
      "state": "California",
      "created": "1983-09-23",
      "latSpan": 0.1222,
      "lonSpan": 0.1912,
      "latitude": 35.55090510447134,
      "longitude": -120.81596202911263
    },
    {
      "id": 55,
      "ava_id": "rockpile",
      "name": "Rockpile",
      "state": "California",
      "created": "2002-04-29",
      "latSpan": 0.2004,
      "lonSpan": 0.382,
      "latitude": 38.75898695,
      "longitude": -123.1509388
    },
    {
      "id": 56,
      "ava_id": "malibu_coast",
      "name": "Malibu Coast",
      "state": "California",
      "created": "2014-08-18",
      "latSpan": 0.4104,
      "lonSpan": 1.0326,
      "latitude": 34.102789057662854,
      "longitude": -118.82299585683484
    },
    {
      "id": 57,
      "ava_id": "suisun_valley",
      "name": "Suisun Valley",
      "state": "California",
      "created": "1982-12-27",
      "latSpan": 0.2114,
      "lonSpan": 0.1712,
      "latitude": 38.26311487502385,
      "longitude": -122.09269812694195
    },
    {
      "id": 58,
      "ava_id": "atlas_peak",
      "name": "Atlas Peak",
      "state": "California",
      "created": "1992-02-24",
      "latSpan": 0.185,
      "lonSpan": 0.2112,
      "latitude": 38.42297717468948,
      "longitude": -122.26329665264551
    },
    {
      "id": 59,
      "ava_id": "yountville",
      "name": "Yountville",
      "state": "California",
      "created": "1999-05-18",
      "latSpan": 0.1642,
      "lonSpan": 0.2382,
      "latitude": 38.39995116807428,
      "longitude": -122.36348428463734
    },
    {
      "id": 60,
      "ava_id": "russian_river_valley",
      "name": "Russian River Valley",
      "state": "California",
      "created": "1983-11-21",
      "latSpan": 0.7036,
      "lonSpan": 0.7146,
      "latitude": 38.47644688160912,
      "longitude": -122.8523705787241
    },
    {
      "id": 61,
      "ava_id": "oak_knoll_district_of_napa_valley",
      "name": "Oak Knoll District of Napa Valley",
      "state": "California",
      "created": "2004-04-26",
      "latSpan": 0.1358,
      "lonSpan": 0.1906,
      "latitude": 38.34845209999999,
      "longitude": -122.32159259999997
    },
    {
      "id": 62,
      "ava_id": "knights_valley",
      "name": "Knights Valley",
      "state": "California",
      "created": "1983-11-21",
      "latSpan": 0.3496,
      "lonSpan": 0.276,
      "latitude": 38.648667953071936,
      "longitude": -122.69210634470156
    },
    {
      "id": 63,
      "ava_id": "inwood_valley",
      "name": "Inwood Valley",
      "state": "California",
      "created": "2012-10-15",
      "latSpan": 0.2252,
      "lonSpan": 0.4656,
      "latitude": 40.527095539502156,
      "longitude": -121.9753020643358
    },
    {
      "id": 64,
      "ava_id": "arroyo_seco",
      "name": "Arroyo Seco",
      "state": "California",
      "created": "1983-05-16",
      "latSpan": 0.305,
      "lonSpan": 0.4938,
      "latitude": 36.32813090592029,
      "longitude": -121.30307918228294
    },
    {
      "id": 65,
      "ava_id": "seiad_valley",
      "name": "Seiad Valley",
      "state": "California",
      "created": "1994-06-20",
      "latSpan": 0.0974,
      "lonSpan": 0.1502,
      "latitude": 41.843773534228454,
      "longitude": -123.17650368047669
    },
    {
      "id": 66,
      "ava_id": "cosumnes_river",
      "name": "Cosumnes River",
      "state": "California",
      "created": "2006-08-16",
      "latSpan": 0.4034,
      "lonSpan": 0.3494,
      "latitude": 38.337238199153276,
      "longitude": -121.38938791716001
    },
    {
      "id": 67,
      "ava_id": "adelaida_district",
      "name": "Adelaida District",
      "state": "California",
      "created": "2014-11-10",
      "latSpan": 0.2686,
      "lonSpan": 0.5168,
      "latitude": 35.64465728247792,
      "longitude": -120.81620743320558
    },
    {
      "id": 68,
      "ava_id": "santa_cruz_mountains",
      "name": "Santa Cruz Mountains",
      "state": "California",
      "created": "1982-01-04",
      "latSpan": 1.1042,
      "lonSpan": 1.5144,
      "latitude": 37.231596793117795,
      "longitude": -122.0400927236858
    },
    {
      "id": 69,
      "ava_id": "paso_robles_highlands_district",
      "name": "Paso Robles Highlands District",
      "state": "California",
      "created": "2014-11-10",
      "latSpan": 0.2932,
      "lonSpan": 0.462,
      "latitude": 35.51322915,
      "longitude": -120.31002809999998
    },
    {
      "id": 70,
      "ava_id": "merritt_island",
      "name": "Merritt Island",
      "state": "California",
      "created": "1983-06-16",
      "latSpan": 0.1752,
      "lonSpan": 0.1388,
      "latitude": 38.37177795691787,
      "longitude": -121.54907425484893
    },
    {
      "id": 71,
      "ava_id": "jahant",
      "name": "Jahant",
      "state": "California",
      "created": "2006-08-16",
      "latSpan": 0.1354,
      "lonSpan": 0.4974,
      "latitude": 38.22293990578091,
      "longitude": -121.29471065268487
    },
    {
      "id": 72,
      "ava_id": "gabilan_mountains",
      "name": "Gabilan Mountains",
      "state": "California",
      "created": "2022-09-14",
      "latSpan": 0.794,
      "lonSpan": 0.9028,
      "latitude": 36.60699994603119,
      "longitude": -121.32722533679112
    },
    {
      "id": 73,
      "ava_id": "edna_valley",
      "name": "Edna Valley",
      "state": "California",
      "created": "1982-06-11",
      "latSpan": 0.2494,
      "lonSpan": 0.307,
      "latitude": 35.23178926973241,
      "longitude": -120.61948367185191
    },
    {
      "id": 74,
      "ava_id": "high_valley",
      "name": "High Valley",
      "state": "California",
      "created": "2005-08-01",
      "latSpan": 0.1248,
      "lonSpan": 0.346,
      "latitude": 39.039826134500515,
      "longitude": -122.67699572771332
    },
    {
      "id": 75,
      "ava_id": "creston_district",
      "name": "Creston District",
      "state": "California",
      "created": "2014-11-10",
      "latSpan": 0.298,
      "lonSpan": 0.41,
      "latitude": 35.514852333167966,
      "longitude": -120.45827693250396
    },
    {
      "id": 76,
      "ava_id": "clements_hills",
      "name": "Clements Hills",
      "state": "California",
      "created": "2006-08-16",
      "latSpan": 0.3996,
      "lonSpan": 0.5048,
      "latitude": 38.145369244674725,
      "longitude": -121.04524838427304
    },
    {
      "id": 77,
      "ava_id": "eagle_peak_mendocino_county",
      "name": "Eagle Peak Mendocino County",
      "state": "California",
      "created": "2014-11-10",
      "latSpan": 0.2752,
      "lonSpan": 0.2894,
      "latitude": 39.29160683874168,
      "longitude": -123.31527463585321
    },
    {
      "id": 78,
      "ava_id": "borden_ranch",
      "name": "Borden Ranch",
      "state": "California",
      "created": "2006-08-16",
      "latSpan": 0.3802,
      "lonSpan": 0.4442,
      "latitude": 38.329675445218726,
      "longitude": -121.1153312455444
    },
    {
      "id": 79,
      "ava_id": "livermore_valley",
      "name": "Livermore Valley",
      "state": "California",
      "created": "1982-10-01",
      "latSpan": 0.7228,
      "lonSpan": 0.9078,
      "latitude": 37.70096796957836,
      "longitude": -121.83766544943377
    },
    {
      "id": 80,
      "ava_id": "spring_mountain_district",
      "name": "Spring Mountain District",
      "state": "California",
      "created": "1993-06-14",
      "latSpan": 0.1674,
      "lonSpan": 0.1888,
      "latitude": 38.509067974625275,
      "longitude": -122.5266318765197
    },
    {
      "id": 81,
      "ava_id": "calistoga",
      "name": "Calistoga",
      "state": "California",
      "created": "2010-01-07",
      "latSpan": 0.1656,
      "lonSpan": 0.2984,
      "latitude": 38.59129895279291,
      "longitude": -122.5721342150692
    },
    {
      "id": 82,
      "ava_id": "tehachapi_mountains",
      "name": "Tehachapi Mountains",
      "state": "California",
      "created": "2020-12-21",
      "latSpan": 0.2298,
      "lonSpan": 0.7272,
      "latitude": 35.118703533868384,
      "longitude": -118.50530860272104
    },
    {
      "id": 83,
      "ava_id": "carmel_valley",
      "name": "Carmel Valley",
      "state": "California",
      "created": "1983-01-13",
      "latSpan": 0.235,
      "lonSpan": 0.3204,
      "latitude": 36.43107696930196,
      "longitude": -121.6908292446177
    },
    {
      "id": 84,
      "ava_id": "manton_valley",
      "name": "Manton Valley",
      "state": "California",
      "created": "2014-09-02",
      "latSpan": 0.1302,
      "lonSpan": 0.3298,
      "latitude": 40.432229072817286,
      "longitude": -121.81746540630022
    },
    {
      "id": 85,
      "ava_id": "san_francisco_bay",
      "name": "San Francisco Bay",
      "state": "California",
      "created": "1999-03-22",
      "latSpan": 2.5678,
      "lonSpan": 2.3142,
      "latitude": 37.567927463229196,
      "longitude": -121.94236296337729
    },
    {
      "id": 86,
      "ava_id": "south_coast",
      "name": "South Coast",
      "state": "California",
      "created": "1985-12-23",
      "latSpan": 2.8254,
      "lonSpan": 2.9994,
      "latitude": 33.240488529673705,
      "longitude": -117.36528329122284
    },
    {
      "id": 87,
      "ava_id": "diamond_mountain_district",
      "name": "Diamond Mountain District",
      "state": "California",
      "created": "2001-07-31",
      "latSpan": 0.0822,
      "lonSpan": 0.2086,
      "latitude": 38.55931951903946,
      "longitude": -122.57460266222893
    },
    {
      "id": 88,
      "ava_id": "yorkville_highlands",
      "name": "Yorkville Highlands",
      "state": "California",
      "created": "1998-06-08",
      "latSpan": 0.2686,
      "lonSpan": 0.5544,
      "latitude": 38.90555715,
      "longitude": -123.2008623
    },
    {
      "id": 89,
      "ava_id": "mokelumne_river",
      "name": "Mokelumne River",
      "state": "California",
      "created": "2006-08-16",
      "latSpan": 0.3982,
      "lonSpan": 0.5966,
      "latitude": 38.15706341848218,
      "longitude": -121.29846702527001
    },
    {
      "id": 90,
      "ava_id": "hames_valley",
      "name": "Hames Valley",
      "state": "California",
      "created": "1994-04-25",
      "latSpan": 0.1558,
      "lonSpan": 0.2532,
      "latitude": 35.883235708088726,
      "longitude": -120.89428137686932
    },
    {
      "id": 91,
      "ava_id": "santa_maria_valley",
      "name": "Santa Maria Valley",
      "state": "California",
      "created": "1981-09-04",
      "latSpan": 0.5,
      "lonSpan": 0.604,
      "latitude": 34.90275515865258,
      "longitude": -120.28306549970233
    },
    {
      "id": 92,
      "ava_id": "dunnigan_hills",
      "name": "Dunnigan Hills",
      "state": "California",
      "created": "1993-06-14",
      "latSpan": 0.479,
      "lonSpan": 0.493,
      "latitude": 38.80307425067298,
      "longitude": -121.93910607412994
    },
    {
      "id": 93,
      "ava_id": "chalone",
      "name": "Chalone",
      "state": "California",
      "created": "1982-07-14",
      "latSpan": 0.118,
      "lonSpan": 0.1804,
      "latitude": 36.473496609147816,
      "longitude": -121.25114438603529
    },
    {
      "id": 94,
      "ava_id": "santa_lucia_highlands",
      "name": "Santa Lucia Highlands",
      "state": "California",
      "created": "1992-06-15",
      "latSpan": 0.4188,
      "lonSpan": 0.3998,
      "latitude": 36.41886949782797,
      "longitude": -121.43085606176129
    },
    {
      "id": 95,
      "ava_id": "paso_robles_estrella_district",
      "name": "Paso Robles Estrella District",
      "state": "California",
      "created": "2014-11-10",
      "latSpan": 0.3316,
      "lonSpan": 0.5224,
      "latitude": 35.70799298229687,
      "longitude": -120.56478362297165
    },
    {
      "id": 96,
      "ava_id": "el_dorado",
      "name": "El Dorado",
      "state": "California",
      "created": "1983-11-14",
      "latSpan": 1.0162,
      "lonSpan": 1.1978,
      "latitude": 38.75642210820888,
      "longitude": -120.7757003991868
    },
    {
      "id": 97,
      "ava_id": "covelo",
      "name": "Covelo",
      "state": "California",
      "created": "2006-03-20",
      "latSpan": 0.2882,
      "lonSpan": 0.307,
      "latitude": 39.79546193992418,
      "longitude": -123.22774702291841
    },
    {
      "id": 98,
      "ava_id": "capay_valley",
      "name": "Capay Valley",
      "state": "California",
      "created": "2003-02-18",
      "latSpan": 0.525,
      "lonSpan": 0.7726,
      "latitude": 38.793814732488286,
      "longitude": -122.229656700615
    },
    {
      "id": 99,
      "ava_id": "wild_horse_valley",
      "name": "Wild Horse Valley",
      "state": "California",
      "created": "1988-12-30",
      "latSpan": 0.1532,
      "lonSpan": 0.0718,
      "latitude": 38.2962826,
      "longitude": -122.19884060000001
    },
    {
      "id": 100,
      "ava_id": "northern_sonoma",
      "name": "Northern Sonoma",
      "state": "California",
      "created": "1985-06-17",
      "latSpan": 1.1044,
      "lonSpan": 1.0186,
      "latitude": 38.576662538107925,
      "longitude": -122.87791241923142
    },
    {
      "id": 101,
      "ava_id": "antelope_valley_of_the_california_high_desert",
      "name": "Antelope Valley of the California High Desert",
      "state": "California",
      "created": "2011-06-23",
      "latSpan": 0.9456,
      "lonSpan": 1.7136,
      "latitude": 34.737978897435426,
      "longitude": -118.15939636103144
    },
    {
      "id": 102,
      "ava_id": "california_shenandoah_valley",
      "name": "California Shenandoah Valley",
      "state": "California",
      "created": "1983-01-27",
      "latSpan": 0.1736,
      "lonSpan": 0.1962,
      "latitude": 38.52552072257939,
      "longitude": -120.80007007266852
    },
    {
      "id": 103,
      "ava_id": "san_ysidro_district",
      "name": "San Ysidro District",
      "state": "California",
      "created": "1990-12-17",
      "latSpan": 0.0976,
      "lonSpan": 0.1002,
      "latitude": 37.00760167542809,
      "longitude": -121.49091004124243
    },
    {
      "id": 104,
      "ava_id": "san_lucas",
      "name": "San Lucas",
      "state": "California",
      "created": "1987-03-02",
      "latSpan": 0.2824,
      "lonSpan": 0.3624,
      "latitude": 36.072752105718976,
      "longitude": -120.97732330751504
    },
    {
      "id": 105,
      "ava_id": "west_sonoma_coast",
      "name": "West Sonoma Coast",
      "state": "California",
      "created": "2022-05-23",
      "latSpan": 0.8876,
      "lonSpan": 1.401,
      "latitude": 38.55704622252817,
      "longitude": -123.18348725833715
    },
    {
      "id": 106,
      "ava_id": "dos_rios",
      "name": "Dos Rios",
      "state": "California",
      "created": "2005-11-14",
      "latSpan": 0.2654,
      "lonSpan": 0.3116,
      "latitude": 39.737319656559855,
      "longitude": -123.34529204636628
    },
    {
      "id": 107,
      "ava_id": "sloughhouse",
      "name": "Sloughhouse",
      "state": "California",
      "created": "2006-08-16",
      "latSpan": 0.5246,
      "lonSpan": 0.5472,
      "latitude": 38.44208342052623,
      "longitude": -121.16383904638064
    },
    {
      "id": 108,
      "ava_id": "napa_valley",
      "name": "Napa Valley",
      "state": "California",
      "created": "1981-02-27",
      "latSpan": 1.2266,
      "lonSpan": 1.1708,
      "latitude": 38.4616623,
      "longitude": -122.35407475
    },
    {
      "id": 109,
      "ava_id": "ramona_valley",
      "name": "Ramona Valley",
      "state": "California",
      "created": "2006-01-06",
      "latSpan": 0.3852,
      "lonSpan": 0.5574,
      "latitude": 33.021942418108495,
      "longitude": -116.84943059069771
    },
    {
      "id": 110,
      "ava_id": "cienega_valley",
      "name": "Cienega Valley",
      "state": "California",
      "created": "1982-09-20",
      "latSpan": 0.164,
      "lonSpan": 0.203,
      "latitude": 36.71736715230263,
      "longitude": -121.36129845561787
    },
    {
      "id": 111,
      "ava_id": "santa_clara_valley",
      "name": "Santa Clara Valley",
      "state": "California",
      "created": "1989-04-27",
      "latSpan": 1.2934,
      "lonSpan": 1.6874,
      "latitude": 37.249363581246705,
      "longitude": -121.78083595685776
    },
    {
      "id": 112,
      "ava_id": "cole_ranch",
      "name": "Cole Ranch",
      "state": "California",
      "created": "1983-05-16",
      "latSpan": 0.0198,
      "lonSpan": 0.0424,
      "latitude": 39.060581107860415,
      "longitude": -123.22438385266416
    },
    {
      "id": 113,
      "ava_id": "alisos_canyon",
      "name": "Alisos Canyon",
      "state": "California",
      "created": "2020-07-28",
      "latSpan": 0.0664,
      "lonSpan": 0.1808,
      "latitude": 34.7505583957026,
      "longitude": -120.19879655765459
    },
    {
      "id": 114,
      "ava_id": "sierra_foothills",
      "name": "Sierra Foothills",
      "state": "California",
      "created": "1987-12-18",
      "latSpan": 4.5468,
      "lonSpan": 3.2564,
      "latitude": 38.318479826583705,
      "longitude": -120.5373897166687
    },
    {
      "id": 115,
      "ava_id": "paso_robles",
      "name": "Paso Robles",
      "state": "California",
      "created": "1983-11-03",
      "latSpan": 0.9528,
      "lonSpan": 1.5024,
      "latitude": 35.55417236335539,
      "longitude": -120.57054543283952
    },
    {
      "id": 116,
      "ava_id": "templeton_gap_district",
      "name": "Templeton Gap District",
      "state": "California",
      "created": "2014-11-10",
      "latSpan": 0.2116,
      "lonSpan": 0.3364,
      "latitude": 35.56244934107726,
      "longitude": -120.72609069610957
    },
    {
      "id": 117,
      "ava_id": "big_valley_district-lake_county",
      "name": "Big Valley District-Lake County",
      "state": "California",
      "created": "2013-11-01",
      "latSpan": 0.1548,
      "lonSpan": 0.2092,
      "latitude": 38.996020261326365,
      "longitude": -122.85787016407428
    },
    {
      "id": 118,
      "ava_id": "santa_ynez_valley",
      "name": "Santa Ynez Valley",
      "state": "California",
      "created": "1983-05-16",
      "latSpan": 0.5026,
      "lonSpan": 0.9454,
      "latitude": 34.64900185967082,
      "longitude": -120.18561392202622
    },
    {
      "id": 119,
      "ava_id": "salado_creek",
      "name": "Salado Creek",
      "state": "California",
      "created": "2004-08-30",
      "latSpan": 0.1256,
      "lonSpan": 0.102,
      "latitude": 37.42656350327658,
      "longitude": -121.1463593429497
    },
    {
      "id": 120,
      "ava_id": "chiles_valley",
      "name": "Chiles Valley",
      "state": "California",
      "created": "1999-04-19",
      "latSpan": 0.1906,
      "lonSpan": 0.2752,
      "latitude": 38.54652494509184,
      "longitude": -122.34043358510819
    },
    {
      "id": 121,
      "ava_id": "mendocino_ridge",
      "name": "Mendocino Ridge",
      "state": "California",
      "created": "1997-10-27",
      "latSpan": 0.5192,
      "lonSpan": 0.704,
      "latitude": 38.9974992,
      "longitude": -123.5178595
    },
    {
      "id": 122,
      "ava_id": "moon_mountain_district_sonoma_county",
      "name": "Moon Mountain District Sonoma County",
      "state": "California",
      "created": "2013-11-01",
      "latSpan": 0.281,
      "lonSpan": 0.2954,
      "latitude": 38.356793978380736,
      "longitude": -122.46849317880265
    },
    {
      "id": 123,
      "ava_id": "lodi",
      "name": "Lodi",
      "state": "California",
      "created": "1986-03-17",
      "latSpan": 1.2874,
      "lonSpan": 1.1446,
      "latitude": 38.25140343936769,
      "longitude": -121.21249600167269
    },
    {
      "id": 124,
      "ava_id": "fort_ross-seaview",
      "name": "Fort Ross-Seaview",
      "state": "California",
      "created": "2011-12-14",
      "latSpan": 0.3196,
      "lonSpan": 0.3888,
      "latitude": 38.5678416,
      "longitude": -123.2518211
    },
    {
      "id": 125,
      "ava_id": "north_yuba",
      "name": "North Yuba",
      "state": "California",
      "created": "1985-08-30",
      "latSpan": 0.3094,
      "lonSpan": 0.2488,
      "latitude": 39.357309418745444,
      "longitude": -121.25070515722481
    },
    {
      "id": 126,
      "ava_id": "sta._rita_hills",
      "name": "Sta. Rita Hills",
      "state": "California",
      "created": "2001-07-30",
      "latSpan": 0.2476,
      "lonSpan": 0.3962,
      "latitude": 34.63738497462316,
      "longitude": -120.32711693319125
    },
    {
      "id": 127,
      "ava_id": "mendocino",
      "name": "Mendocino",
      "state": "California",
      "created": "1984-07-16",
      "latSpan": 1.0544,
      "lonSpan": 1.2604,
      "latitude": 39.102005110311495,
      "longitude": -123.31984495321169
    },
    {
      "id": 128,
      "ava_id": "los_olivos_district",
      "name": "Los Olivos District",
      "state": "California",
      "created": "2016-02-22",
      "latSpan": 0.2256,
      "lonSpan": 0.2494,
      "latitude": 34.634103718579034,
      "longitude": -120.09274108901893
    },
    {
      "id": 129,
      "ava_id": "river_junction",
      "name": "River Junction",
      "state": "California",
      "created": "2001-07-09",
      "latSpan": 0.05,
      "lonSpan": 0.0852,
      "latitude": 37.675875537362685,
      "longitude": -121.24275700756914
    },
    {
      "id": 130,
      "ava_id": "madera",
      "name": "Madera",
      "state": "California",
      "created": "1985-01-07",
      "latSpan": 0.8268,
      "lonSpan": 1.7066,
      "latitude": 36.969853,
      "longitude": -120.11801274999999
    },
    {
      "id": 131,
      "ava_id": "lamorinda",
      "name": "Lamorinda",
      "state": "California",
      "created": "2016-03-25",
      "latSpan": 0.2694,
      "lonSpan": 0.3214,
      "latitude": 37.870626351671525,
      "longitude": -122.14159196729412
    },
    {
      "id": 132,
      "ava_id": "red_hills_lake_county",
      "name": "Red Hills Lake County",
      "state": "California",
      "created": "2004-09-10",
      "latSpan": 0.2188,
      "lonSpan": 0.4144,
      "latitude": 38.913268696188524,
      "longitude": -122.71637173768701
    },
    {
      "id": 133,
      "ava_id": "clarksburg",
      "name": "Clarksburg",
      "state": "California",
      "created": "1984-02-22",
      "latSpan": 0.6952,
      "lonSpan": 0.4388,
      "latitude": 38.33801857985379,
      "longitude": -121.5637907578624
    },
    {
      "id": 134,
      "ava_id": "chalk_hill",
      "name": "Chalk Hill",
      "state": "California",
      "created": "1983-11-21",
      "latSpan": 0.2138,
      "lonSpan": 0.3442,
      "latitude": 38.56147786209684,
      "longitude": -122.75977159259415
    },
    {
      "id": 135,
      "ava_id": "kelsey_bench-lake_county",
      "name": "Kelsey Bench-Lake County",
      "state": "California",
      "created": "2013-11-01",
      "latSpan": 0.1636,
      "lonSpan": 0.2332,
      "latitude": 38.9448676337184,
      "longitude": -122.8650082433898
    },
    {
      "id": 136,
      "ava_id": "north_coast",
      "name": "North Coast",
      "state": "California",
      "created": "1983-10-21",
      "latSpan": 3.3372,
      "lonSpan": 3.5644,
      "latitude": 38.76176415826421,
      "longitude": -122.93740291847257
    },
    {
      "id": 137,
      "ava_id": "potter_valley",
      "name": "Potter Valley",
      "state": "California",
      "created": "1983-11-14",
      "latSpan": 0.2718,
      "lonSpan": 0.2624,
      "latitude": 39.29754516091086,
      "longitude": -123.08568506676994
    },
    {
      "id": 138,
      "ava_id": "fountaingrove_district",
      "name": "Fountaingrove District",
      "state": "California",
      "created": "2015-03-20",
      "latSpan": 0.2242,
      "lonSpan": 0.3926,
      "latitude": 38.514193754841244,
      "longitude": -122.62759481756984
    },
    {
      "id": 139,
      "ava_id": "san_juan_creek",
      "name": "San Juan Creek",
      "state": "California",
      "created": "2014-11-10",
      "latSpan": 0.4006,
      "lonSpan": 0.4998,
      "latitude": 35.588020456973815,
      "longitude": -120.319511977937
    },
    {
      "id": 140,
      "ava_id": "paulsell_valley",
      "name": "Paulsell Valley",
      "state": "California",
      "created": "2022-06-03",
      "latSpan": 0.3406,
      "lonSpan": 0.286,
      "latitude": 37.73071398590878,
      "longitude": -120.66329799687126
    },
    {
      "id": 141,
      "ava_id": "paso_robles_geneseo_district",
      "name": "Paso Robles Geneseo District",
      "state": "California",
      "created": "2014-11-10",
      "latSpan": 0.1764,
      "lonSpan": 0.3066,
      "latitude": 35.61548519415034,
      "longitude": -120.58751083950665
    },
    {
      "id": 142,
      "ava_id": "dry_creek_valley",
      "name": "Dry Creek Valley",
      "state": "California",
      "created": "1983-09-06",
      "latSpan": 0.41,
      "lonSpan": 0.5136,
      "latitude": 38.647509549205225,
      "longitude": -122.9852612903125
    },
    {
      "id": 143,
      "ava_id": "san_bernabe",
      "name": "San Bernabe",
      "state": "California",
      "created": "2004-08-30",
      "latSpan": 0.248,
      "lonSpan": 0.2938,
      "latitude": 36.141800595019255,
      "longitude": -121.0999256869553
    },
    {
      "id": 144,
      "ava_id": "benmore_valley",
      "name": "Benmore Valley",
      "state": "California",
      "created": "1991-11-18",
      "latSpan": 0.0544,
      "lonSpan": 0.0778,
      "latitude": 39.01023361086976,
      "longitude": -123.02154143679536
    },
    {
      "id": 145,
      "ava_id": "leona_valley",
      "name": "Leona Valley",
      "state": "California",
      "created": "2008-11-28",
      "latSpan": 0.1336,
      "lonSpan": 0.3182,
      "latitude": 34.61879799431223,
      "longitude": -118.29745365692224
    },
    {
      "id": 146,
      "ava_id": "temecula_valley",
      "name": "Temecula Valley",
      "state": "California",
      "created": "1984-11-23",
      "latSpan": 0.3262,
      "lonSpan": 0.7974,
      "latitude": 33.52509147241173,
      "longitude": -117.17144707284041
    },
    {
      "id": 147,
      "ava_id": "san_antonio_valley",
      "name": "San Antonio Valley",
      "state": "California",
      "created": "2006-07-10",
      "latSpan": 0.5762,
      "lonSpan": 0.9502,
      "latitude": 35.93576689014681,
      "longitude": -121.1065875799249
    }
  ]
}