{
	"id": 0,
	"region": "Western_Australia",
	"ava": [{
		"id": 0,
		"ava_id": "albany",
		"name": "Albany",
		"state": "Western Australia",
		"created": "1999-07-28",
		"latSpan": 0.3399,
		"lonSpan": 0.6037,
		"latitude": -34.9648995,
		"longitude": 117.795344
	}, {
		"id": 1,
		"ava_id": "great_southern",
		"name": "Great Southern",
		"state": "Western Australia",
		"created": "1996-10-30",
		"latSpan": 1.0027,
		"lonSpan": 2.3431,
		"latitude": -34.633484499999994,
		"longitude": 117.7432135
	}, {
		"id": 2,
		"ava_id": "perth_hills",
		"name": "Perth Hills",
		"state": "Western Australia",
		"created": "1999-03-25",
		"latSpan": 1.1711,
		"lonSpan": 0.3495,
		"latitude": -31.913592,
		"longitude": 116.1640455
	}, {
		"id": 3,
		"ava_id": "peel",
		"name": "Peel",
		"state": "Western Australia",
		"created": "2001-09-04",
		"latSpan": 0.965,
		"lonSpan": 1.3104,
		"latitude": -32.6867885,
		"longitude": 116.2619645
	}, {
		"id": 4,
		"ava_id": "pemberton",
		"name": "Pemberton",
		"state": "Western Australia",
		"created": "2006-02-14",
		"latSpan": 0.5677,
		"lonSpan": 0.6112,
		"latitude": -34.53508,
		"longitude": 116.0481895
	}, {
		"id": 5,
		"ava_id": "porongurup",
		"name": "Porongurup",
		"state": "Western Australia",
		"created": "1999-07-28",
		"latSpan": 0.1635,
		"lonSpan": 0.316,
		"latitude": -34.661170999999996,
		"longitude": 117.92957949999999
	}, {
		"id": 6,
		"ava_id": "swan_district",
		"name": "Swan District",
		"state": "Western Australia",
		"created": "1998-12-10",
		"latSpan": 0.9493,
		"lonSpan": 0.5505,
		"latitude": -31.603873,
		"longitude": 115.804191
	}, {
		"id": 7,
		"ava_id": "frankland_river",
		"name": "Frankland River",
		"state": "Western Australia",
		"created": "2000-08-24",
		"latSpan": 0.406,
		"lonSpan": 0.4358,
		"latitude": -34.3714455,
		"longitude": 117.001672
	}, {
		"id": 8,
		"ava_id": "mount_barker",
		"name": "Mount Barker",
		"state": "Western Australia",
		"created": "1997-08-15",
		"latSpan": 0.3233,
		"lonSpan": 0.4385,
		"latitude": -34.637189500000005,
		"longitude": 117.5474915
	}, {
		"id": 9,
		"ava_id": "greater_perth",
		"name": "Greater Perth",
		"state": "Western Australia",
		"created": "1996-05-01",
		"latSpan": 2.8684,
		"lonSpan": 1.4233,
		"latitude": -31.5086965,
		"longitude": 115.703528
	}, {
		"id": 10,
		"ava_id": "blackwood_valley",
		"name": "Blackwood Valley",
		"state": "Western Australia",
		"created": "1998-12-10",
		"latSpan": 0.7147,
		"lonSpan": 1.2384,
		"latitude": -33.913296,
		"longitude": 116.18231499999999
	}, {
		"id": 11,
		"ava_id": "west_australian_south_east_coastal",
		"name": "West Australian South East Coastal",
		"state": "Western Australia",
		"created": "1996-05-01",
		"latSpan": 1.9766,
		"lonSpan": 6.39,
		"latitude": -33.5533715,
		"longitude": 121.0493045
	}, {
		"id": 12,
		"ava_id": "swan_valley",
		"name": "Swan Valley",
		"state": "Western Australia",
		"created": "2003-01-06",
		"latSpan": 0.1446,
		"lonSpan": 0.1198,
		"latitude": -31.823311500000003,
		"longitude": 116.01956799999999
	}, {
		"id": 13,
		"ava_id": "denmark",
		"name": "Denmark",
		"state": "Western Australia",
		"created": "2003-01-06",
		"latSpan": 0.2597,
		"lonSpan": 0.7603,
		"latitude": -34.960103000000004,
		"longitude": 117.115088
	}, {
		"id": 14,
		"ava_id": "eastern_plains,_inland_and_north_of_western_australia",
		"name": "Eastern Plains, Inland and North of Western Australia",
		"state": "Western Australia",
		"created": "1996-05-01",
		"latSpan": 20.0635,
		"lonSpan": 15.8456,
		"latitude": -23.772964,
		"longitude": 121.0790715
	}, {
		"id": 15,
		"ava_id": "margaret_river",
		"name": "Margaret River",
		"state": "Western Australia",
		"created": "1996-10-30",
		"latSpan": 0.8469,
		"lonSpan": 0.3268,
		"latitude": -33.95327399999999,
		"longitude": 115.138069
	}, {
		"id": 16,
		"ava_id": "geographe",
		"name": "Geographe",
		"state": "Western Australia",
		"created": "1999-03-25",
		"latSpan": 1.0617,
		"lonSpan": 1.0264,
		"latitude": -33.407737999999995,
		"longitude": 115.8146175
	}, {
		"id": 17,
		"ava_id": "south_west_australia",
		"name": "South West Australia",
		"state": "Western Australia",
		"created": "1996-05-01",
		"latSpan": 2.2129,
		"lonSpan": 3.807,
		"latitude": -34.028376,
		"longitude": 116.8781985
	}, {
		"id": 18,
		"ava_id": "central_western_australia",
		"name": "Central Western Australia",
		"state": "Western Australia",
		"created": "1996-05-01",
		"latSpan": 4.0949,
		"lonSpan": 2.1127,
		"latitude": -32.210415999999995,
		"longitude": 116.9325095
	}, {
		"id": 19,
		"ava_id": "western_australia",
		"name": "Western Australia",
		"state": "Western Australia",
		"created": "1994-01-26",
		"latSpan": 2.8684,
		"lonSpan": 1.4233,
		"latitude": -31.5086965,
		"longitude": 115.703528
	}, {
		"id": 20,
		"ava_id": "manjimup",
		"name": "Manjimup",
		"state": "Western Australia",
		"created": "2006-02-14",
		"latSpan": 0.4536,
		"lonSpan": 0.8528,
		"latitude": -34.3560815,
		"longitude": 116.34309400000001
	}]
}
